,name,postcode,borough,latitude,longitude,price,rating,popularity,number_of_crimes,number_of_metro,number_of_police,distance_metro,distance_police,metro,police
0,The Black Horse,EN5 4BW,London Borough of Barnet,51.653075,-0.206657,1.0,8.1,0.9395506925852636,30,0,2.0,904.7221783952056,390.28142268413694,0,1
1,Ye Olde Mitre Inne,EN5 5SJ,London Borough of Barnet,51.652979,-0.199367,1.0,7.6,0.9827680130368992,45,1,3.0,443.9459654988773,119.56110587743017,1,1
2,The Arkley,EN5 3EP,London Borough of Barnet,51.652533,-0.219573,1.0,7.7,0.9873751600512164,2,0,0.0,1767.1738669776782,1215.8159628743226,0,0
3,Railway Tavern,EN4 8RR,London Borough of Barnet,51.650059,-0.174692,1.0,7.4,0.9508951228029332,64,0,0.0,1343.2480489568218,1149.6212554108404,0,0
4,The Kings Head,EN5 5SN,London Borough of Barnet,51.653499,-0.200979,1.0,6.6,0.3777767431032476,40,0,3.0,568.2927593999508,98.11283449358235,0,1
5,The Monken Holt,EN5 5SU,London Borough of Barnet,51.658291,-0.201368,1.0,6.8,0.246145966709347,22,0,2.0,985.0319775469468,313.70780481876744,0,1
6,The Red Lion,EN5 5UW,London Borough of Barnet,51.652453,-0.199044,1.0,6.1,0.967386800139681,44,1,3.0,393.2690565702389,71.39873342725784,1,1
7,The Orange Tree,N20 8NX,London Borough of Barnet,51.629934,-0.197419,1.0,6.5,0.9514980793854032,1,0,0.0,1259.998884265972,2485.475467501432,0,0
8,Queens Arms,EN5 1AB,London Borough of Barnet,51.64669,-0.188042,1.0,5.6,0.8880013968106157,45,0,0.0,609.0855924052835,929.066928842225,0,0
9,The Railway Bell,EN4 8RR,London Borough of Barnet,51.650462,-0.172977,1.0,5.6,0.9352252357117914,67,0,0.0,1460.0965996654863,1097.002704283349,0,0
10,Prince of Wales,EN4 8TB,London Borough of Barnet,51.642101,-0.163195,1.0,5.7,0.9672191828657898,41,0,2.0,1449.2248798999624,134.9859173763664,0,1
11,Kings Head,DA5 1AA,London Borough of Bexley,51.441903,0.149824,1.0,6.7,0.9516005121638924,22,0,0.0,11061.737109314008,1673.630808145107,0,0
12,The Traveller's Home,DA7 5AR,London Borough of Bexley,51.462432,0.152058,1.0,7.1,0.946253055523222,28,0,0.0,8829.474268540353,646.4352846761523,0,0
13,The Prince Albert,DA6 7LE,London Borough of Bexley,51.455431,0.152618,1.0,6.8,0.8890862530555232,86,0,1.0,9608.915627933324,303.4036185226737,0,1
14,The George,DA5 1AJ,London Borough of Bexley,51.441873,0.150353,1.0,6.2,0.9505971365382376,22,0,0.0,11070.509366352222,1678.6505249495503,0,0
15,Yacht,DA7 5AE,London Borough of Bexley,51.466222,0.144872,1.0,6.8,0.9660365498777792,15,0,0.0,8336.781810470233,1070.0038117141128,0,0
16,William Camden,DA7 4EQ,London Borough of Bexley,51.462077,0.131824,1.0,6.6,0.9428588057269236,44,0,0.0,8705.6089637565,1318.17984424191,0,0
17,The Furze Wren,DA6 7DY,London Borough of Bexley,51.456671,0.146431,1.0,6.1,0.9956908392503784,123,0,1.0,9402.8960770843,178.87774566367867,0,1
18,The Kings Arms,DA6 7DW,London Borough of Bexley,51.456949,0.142945,1.0,6.1,0.9587754626935164,151,0,1.0,9339.32019054274,417.7944266638556,0,1
19,The Crayford Arms,DA1 4HH,London Borough of Bexley,51.452565,0.177089,1.0,6.2,0.9038924455825864,66,0,0.0,10154.039918082795,2007.959158628736,0,0
20,The Three Blackbirds,DA5 1BX,London Borough of Bexley,51.448248,0.122272,1.0,6.1,0.8989593760912583,24,0,0.0,10069.263585443374,2087.7957549177686,0,0
21,Golden Lion,DA6 8BE,London Borough of Bexley,51.458035,0.13575,1.0,5.8,0.9629891747177278,105,0,0.0,9170.210125200749,924.2768486505722,0,0
22,The Wrong Un,DA6 8AS,London Borough of Bexley,51.457841,0.137459,1.0,5.6,0.9383750436503318,114,0,0.0,9200.990856905071,804.0853222564829,0,0
23,Bear & Ragged Staff,DA1 4BS,London Borough of Bexley,51.451845,0.177927,1.0,5.5,0.9192736584798044,72,0,0.0,10244.81350966754,2084.6936742437474,0,0
24,The White Horse,HA9 0HP,London Borough of Brent,51.558346,-0.280355,1.0,6.8,0.9762146432312886,165,0,0.0,580.7327206373186,572.6615399419749,0,0
25,The Fusilier,HA0 2HA,London Borough of Brent,51.561739,-0.3319285,1.0,7.2,0.9605191479455244,30,0,0.0,595.956600848535,2138.8484203871367,0,0
26,The Torch,HA9 9AB,London Borough of Brent,51.56493,-0.277282,1.0,5.7,0.9589873123035736,111,1,1.0,230.0547353107528,208.3798559307727,1,1
27,J J Moon's,HA9 6AA,London Borough of Brent,51.553489,-0.292652,1.0,6.1,0.9868094517518332,163,1,0.0,331.41289814793123,919.328048323116,1,0
28,The Parish,HA9 8HP,London Borough of Brent,51.561744,-0.282882,1.0,5.6,0.985580258409964,159,1,1.0,294.7272059855122,321.93437758452046,1,1
29,J J Moons,NW9 9EL,London Borough of Brent,51.584604,-0.280033,1.0,5.7,0.9920568036317076,64,1,1.0,95.2925328369254,208.55241704436077,1,1
30,Black Horse,BR6 8NW,London Borough of Bromley,51.368235,0.056846,1.0,7.5,0.9547410080316612,36,0,0.0,13668.240421500372,2826.749081846453,0,0
31,One Inn the Wood,BR5 1LA,London Borough of Bromley,51.390105,0.073816,1.0,8.3,0.9743708532184844,33,0,0.0,12242.494451263956,2363.821927948767,0,0
32,The British Queen,BR6 8NL,London Borough of Bromley,51.366437,0.0542,1.0,7.3,0.9464020486555698,43,0,0.0,13763.706988450707,2873.3620059582745,0,0
33,The Greyhound,BR2 6BP,London Borough of Bromley,51.363645,0.028593,1.0,7.4,0.956840879990688,0,0,0.0,13364.667696995504,4412.32250609468,0,0
34,The Woodman,BR6 7BA,London Borough of Bromley,51.359255,0.067621,1.0,6.6,0.9380677453148644,8,0,0.0,14900.304644758846,1682.199071953759,0,0
35,The Royal Oak,BR6 6BJ,London Borough of Bromley,51.351319,0.089519,1.0,7.0,0.904898149225934,9,0,1.0,16421.666548777026,245.8691580339505,0,1
36,Ye Olde Whyte Lyon,BR6 8NE,London Borough of Bromley,51.364223,0.056685,1.0,6.4,0.9090862530555232,36,0,0.0,14060.927977705953,2603.929158419752,0,0
37,The Chequers,BR2 8AP,London Borough of Bromley,51.39028,0.045439,1.0,6.5,0.9756116866488184,22,0,0.0,11135.478054157677,4109.081645980033,0,0
38,The Fox Inn,BR2 6BQ,London Borough of Bromley,51.361966,0.02739,1.0,6.4,0.938291235013386,0,0,0.0,13509.864814532866,4450.039901811917,0,0
39,The Queens Head,BR6 6BQ,London Borough of Bromley,51.352253,0.089814,1.0,6.2,0.9880409731113956,9,0,1.0,16343.800356352624,140.24310121896016,0,1
40,Sovereign of the Seas,BR5 1DG,London Borough of Bromley,51.389374,0.072001,1.0,6.1,0.9537306483529276,33,0,0.0,12231.134884779212,2417.823532205514,0,0
41,The Buff,BR6 9NL,London Borough of Bromley,51.360007,0.087786,1.0,5.7,0.9353043883133512,10,0,0.0,15539.26119221872,739.3734308107563,0,0
42,Daylight Inn,BR5 1LZ,London Borough of Bromley,51.389403,0.075031,1.0,5.7,0.9517471772785472,36,0,0.0,12355.771722097565,2249.399091206109,0,0
43,The Harvest Moon,BR6 0LQ,London Borough of Bromley,51.377816,0.101193,1.0,5.0,0.9570690257245956,69,0,3.0,14499.13856976934,86.02365360409341,0,1
44,Tapping the Admiral,NW1 8SU,London Borough of Camden,51.545249,-0.146113,2.0,8.9,0.987289023396578,209,0,0.0,287.1062891300266,551.3502446716402,1,0
45,The Hawley Arms,NW1 8QU,London Borough of Camden,51.542083,-0.145564,2.0,8.8,0.9828029333022932,339,1,3.0,351.28984583721393,426.770513842436,1,1
46,The Southampton Arms,NW5 1LE,London Borough of Camden,51.55606,-0.146228,2.0,9.1,0.985969037364684,83,0,0.0,418.5274377754439,541.8271990985422,1,0
47,The Washington,NW3 4UE,London Borough of Camden,51.545666,-0.162814,1.0,7.7,0.9828285414969152,71,0,0.0,537.1676411464146,804.5624351760418,0,0
48,The Pineapple,NW5 2NX,London Borough of Camden,51.553066,-0.139617,2.0,8.5,0.976058666045862,150,2,3.0,298.7808032756864,393.6509703268628,1,1
49,Edinboro Castle,NW1 7RU,London Borough of Camden,51.536059,-0.144828,2.0,8.1,0.974920265394017,235,2,1.0,378.3979914712401,357.1637888661436,1,1
50,The Lion and Unicorn,NW5 2ED,London Borough of Camden,51.548005,-0.139121,1.0,8.2,0.9646979397043416,126,1,2.0,293.2440719870276,246.0353738959981,1,1
51,The Rose & Crown,NW5 2SG,London Borough of Camden,51.550286,-0.13306,1.0,8.6,0.9731207077173788,123,0,0.0,526.5416653911577,612.6120648400339,0,0
52,The Colonel Fawcett,NW1 0SS,London Borough of Camden,51.541765,-0.136043,2.0,8.2,0.9837550925387032,106,0,4.0,261.0839067549132,274.54101539383123,1,1
53,The Elgin,W9 1NJ,City of Westminster,51.53033,-0.18551,2.0,8.4,0.9870911418926784,91,1,0.0,55.10109477114572,1539.241351058647,1,0
54,The Old Eagle,NW1 9LU,London Borough of Camden,51.54285,-0.139508,1.0,8.1,0.97363752764521,277,1,3.0,105.499349751605,224.10709627667904,1,1
55,The Lord Stanley,NW1 9BH,London Borough of Camden,51.547148,-0.129562,1.0,8.5,0.972580607612618,106,0,0.0,812.1407581642604,811.8949534094077,0,0
56,Lord Wargrave,W1H 5HE,City of Westminster,51.518117,-0.165765,1.0,8.8,0.9868536840879992,259,2,2.0,246.023625450678,207.22697444396505,1,1
57,The Warrington,W9 1EH,City of Westminster,51.526695,-0.183411,1.0,8.3,0.9797136538237692,85,2,0.0,378.6611755733424,1110.3401185776206,1,0
58,The Elephants Head,NW1 8QR,London Borough of Camden,51.540698,-0.143932,2.0,7.8,0.9857036433476896,355,1,4.0,164.3641222056679,286.40438194722844,1,1
59,The Windsor Castle,NW1 4SH,City of Westminster,51.526381,-0.162255,1.0,8.1,0.9709440111744848,80,1,1.0,416.92067651617657,471.0618989707343,1,1
60,The World's End,NW1 0NE,London Borough of Camden,51.539159,-0.142119,1.0,7.9,0.9960074496566174,344,1,5.0,73.68392652536158,127.26275150229684,1,1
61,The Garden Gate,NW3 2QE,London Borough of Camden,51.554679,-0.165585,1.0,7.8,0.9738749854498894,61,1,0.0,98.91378537648004,1461.184724321128,1,0
62,The Flask,NW3 1HE,London Borough of Camden,51.556631,-0.177141,1.0,8.0,0.9646257711558608,32,1,0.0,96.76161196013584,1345.9315661463324,1,0
63,The Royal Oak,W1H 1QN,City of Westminster,51.520094,-0.162501,1.0,8.3,0.9478780118728902,208,2,2.0,287.37464683535785,284.15091143748305,1,1
64,The Abbey Tavern,NW1 9QB,London Borough of Camden,51.545839,-0.141539,1.0,7.7,0.9761960190897452,151,0,2.0,438.6762254380168,401.874262621424,1,1
65,The Ordnance,NW8 6PS,City of Westminster,51.535794,-0.171563,1.0,7.4,0.9490792690024444,56,1,0.0,222.6621615772204,746.1448339505698,1,0
66,The Freemasons Arms,NW3 1NT,London Borough of Camden,51.556904,-0.168907,2.0,7.7,0.9535420789197998,37,0,0.0,238.6647353448897,1637.3305287767553,1,0
67,The Lord Palmerston,NW5 1HU,London Borough of Camden,51.559512,-0.140553,1.0,7.9,0.9618368059597252,102,1,1.0,361.6021638432745,362.9009477439661,1,1
68,The George,NW3 2AE,London Borough of Camden,51.552332,-0.167195,1.0,7.4,0.9646467233150972,71,1,0.0,281.152867472325,1177.6611746288856,1,0
69,The Clifton,NW8 0JT,City of Westminster,51.535985,-0.184918,1.0,7.6,0.9685508089861484,109,0,0.0,635.9477698306479,1080.6461618300036,0,0
70,North London Tavern Kilburn,NW6 7QB,London Borough of Brent,51.545549,-0.202573,2.0,7.9,0.9916354324292864,125,1,0.0,61.90650163871919,1008.2392979126464,1,0
71,The Pembroke,NW1 8JA,London Borough of Camden,51.542409,-0.154896,1.0,7.1,0.9618903503666628,126,1,0.0,181.1628676554717,1061.233657309305,1,0
72,Duke of Hamilton,NW3 1JD,London Borough of Camden,51.55889,-0.177418,1.0,7.6,0.9874426725643116,25,1,0.0,281.6231315785143,1411.2968137573623,1,0
73,Prince Albert,NW1 0SG,London Borough of Camden,51.539934,-0.137066,1.0,7.4,0.964583866837388,233,1,5.0,291.17054933581755,195.5252146854572,1,1
74,Assembly House,NW5 2TG,London Borough of Camden,51.551025,-0.140492,2.0,7.3,0.9621743685252008,125,1,2.0,64.01940165622042,197.7467519973012,1,1
75,Lore of the Land,W1T 6BB,London Borough of Camden,51.522025,-0.139527,1.0,7.6,0.9645978349435456,177,3,2.0,292.3806249232218,409.0822943292039,1,1
76,Allsop Arms,NW1 5AL,City of Westminster,51.522369,-0.160111,1.0,7.5,0.9806937492724944,118,2,1.0,202.20842510896915,23.23545723395358,1,1
77,The Parcel Yard,N1C 4AH,London Borough of Camden,51.532327,-0.123734,3.0,7.5,0.997623093935514,195,1,0.0,196.17064792255744,722.6459700467399,1,0
78,Devonshire Arms,NW1 8NL,London Borough of Camden,51.540935,-0.142322,2.0,7.1,0.9830403911069724,336,1,5.0,190.81810304601777,176.56165644275686,1,1
79,The Exmouth Arms,NW1 2HR,London Borough of Camden,51.527829,-0.136822,1.0,7.4,0.9714841112792456,210,3,0.0,234.39213250333967,525.7608733331834,1,0
80,The Constitution,NW1 0QT,London Borough of Camden,51.540281,-0.135388,1.0,7.2,0.9253451286229776,173,0,5.0,356.003894960757,280.4110419701398,1,1
81,Warwick Castle,W9 2PX,City of Westminster,51.522021,-0.183867,1.0,7.3,0.9625887556745432,103,2,0.0,142.0500681911114,686.613121652492,1,0
82,The Camden Eye,NW1 9NX,London Borough of Camden,51.53948,-0.142198,1.0,6.9,0.9884763124199744,355,1,5.0,69.47800822384474,160.1518578794781,1,1
83,Princess of Wales,NW1 8LL,London Borough of Camden,51.540347,-0.153859,1.0,6.7,0.9532208124781748,90,1,0.0,395.07830512368383,917.7230725089828,1,0
84,Oxford Arms,NW1 7BU,London Borough of Camden,51.54057,-0.144377,1.0,6.8,0.9842858805726924,349,1,4.0,164.3978005067379,317.64239949006287,1,1
85,Fountains Abbey,W2 1RL,City of Westminster,51.516902,-0.172958,1.0,7.2,0.9829984867884995,239,3,3.0,261.4524571725071,292.7605281734673,1,1
86,Sir Colin Campbell,NW6 2BY,London Borough of Camden,51.543477,-0.199431,1.0,6.9,0.9678826679082762,206,0,0.0,300.8122123202623,1155.1547036712072,1,0
87,The Enterprise,NW3 2BL,London Borough of Camden,51.544126,-0.152844,1.0,6.3,0.9865231055756024,166,1,0.0,73.31830415890397,955.0452712094344,1,0
88,The Star of Kings,N1 0AX,London Borough of Islington,51.536521,-0.121916,1.0,6.9,0.9898940751949716,108,0,0.0,644.2874162846863,805.9874218617031,0,0
89,Carlton Tavern,NW6 5EU,City of Westminster,51.532056,-0.191426,1.0,6.7,0.9593062507275056,142,2,0.0,367.3357258665415,1707.526675651487,1,0
90,The Ice Wharf,NW1 7BY,London Borough of Camden,51.540346,-0.145704,1.0,6.4,0.9922686532417646,345,1,4.0,210.91239741184603,399.3723541000011,1,1
91,The Good Mixer,NW1 7HJ,London Borough of Camden,51.539487,-0.144393,1.0,6.4,0.9773157956000466,314,1,5.0,87.77369983026887,270.95433453113225,1,1
92,The Metropolitan Bar,NW1 5LD,City of Westminster,51.522676,-0.156862,2.0,6.6,0.9976161098824352,113,2,1.0,12.649932405850452,250.23618340996651,1,1
93,Globe,NW1 5JY,City of Westminster,51.52197,-0.157056,2.0,6.6,0.9952834361541149,119,2,1.0,29.624464143018457,236.1664748243055,1,1
94,The Albany,W1W 5QU,City of Westminster,51.523228,-0.143925,2.0,6.6,0.9778838319171226,147,3,1.0,75.89892445497584,366.0907765576098,1,1
95,The Royal Exchange,W2 1PU,City of Westminster,51.518134,-0.169737,1.0,6.7,0.9607542777325108,268,3,2.0,165.18265528609888,198.6206531779773,1,1
96,The Railway,NW6 2LU,London Borough of Camden,51.546252,-0.190963,1.0,6.5,0.9776626702362938,95,1,0.0,45.45268932474384,892.9886800814869,1,0
97,Ye Olde Swiss Cottage,NW3 5EL,London Borough of Camden,51.542894,-0.174764,1.0,6.1,0.9837783727156326,112,1,1.0,55.95516657434646,119.07997936790392,1,1
98,The Barrel Vault,N1C 4QP,London Borough of Camden,51.533462,-0.1286822,1.0,6.6,0.9984169479688044,151,1,0.0,456.89819139840114,820.3275867681776,1,0
99,Prince of Wales Feathers,W1T 5LD,London Borough of Camden,51.524233,-0.13855,1.0,6.5,0.9658479804446514,182,4,1.0,43.01953611988492,461.80109481284336,1,1
100,The Doric Arch,NW1 1DN,London Borough of Camden,51.527996,-0.132049,2.0,6.5,0.9867582353625888,203,2,0.0,73.59219435922826,535.7582084541261,1,0
101,Lyttelton Arms,NW1 7JE,London Borough of Camden,51.534532,-0.139251,2.0,6.3,0.978472820393435,199,1,2.0,33.565047684306805,423.87542705910704,1,1
102,Quinn's,NW1 8NY,London Borough of Camden,51.543002,-0.142073,1.0,5.7,0.966569665929461,311,1,3.0,197.4019612605312,290.2753177916869,1,1
103,O'Neill's,NW1 2QS,London Borough of Camden,51.528916,-0.126176,2.0,6.1,0.985366080782214,280,1,1.0,238.1008943131495,345.5363708376095,1,1
104,Royal George,NW1 1DG,London Borough of Camden,51.528287,-0.131597,2.0,6.0,0.9944476778023512,171,2,0.0,116.30431742858282,523.5971463420052,1,0
105,The Rocket,NW1 2AL,London Borough of Camden,51.528246,-0.128965,3.0,5.9,0.982765685019206,216,2,1.0,286.7822685747664,375.41772810465767,1,1
106,The Court,W1T 5AA,London Borough of Camden,51.523067,-0.136878,1.0,5.8,0.9726364800372482,163,4,2.0,180.3819045238668,332.34759362864736,1,1
107,Green Man,NW1 3AU,City of Westminster,51.523695,-0.143183,2.0,5.6,0.974817832615528,162,3,1.0,59.46545704120125,320.58327528364526,1,1
108,The Stags Head,W1W 6XW,City of Westminster,51.519907,-0.143195,1.0,5.7,0.9667791875218252,156,2,0.0,448.3319188810603,618.6471704665539,1,0
109,Duke of York,W1H 5HT,City of Westminster,51.517584,-0.164117,1.0,5.6,0.96916307763939,230,1,1.0,351.7080067260389,331.38967739496485,1,1
110,The Northumberland Arms,W1T 5AW,London Borough of Camden,51.523533,-0.137327,1.0,5.4,0.9772087067861716,170,4,2.0,120.09079420695818,392.5449765149245,1,1
111,Ye Olde Cheshire Cheese,EC4A 2BU,City of London Corporation,51.514321,-0.10721,2.0,8.6,0.9835199627517168,99,1,2.0,267.707150816591,328.3022196359051,1,1
112,The Culpeper,E1 6LP,London Borough of Tower Hamlets,51.516814,-0.072909,2.0,8.8,0.9875264812012572,312,2,3.0,201.8698916556596,180.5547491918496,1,1
113,The Rake,SE1 9AG,London Borough of Southwark,51.506131,-0.091223,2.0,8.5,0.9845605866604586,192,1,1.0,451.1206895130834,250.6298524516505,1,1
114,The Blackfriar,EC4V 4EG,City of London Corporation,51.512102,-0.103706,2.0,8.2,0.9902619019904552,81,1,1.0,80.85706014217254,112.67502807063852,1,1
115,Founder's Arms,SE1 9JH,London Borough of Southwark,51.508517,-0.101674,2.0,8.3,0.9931486439296938,74,1,1.0,368.7707764335281,424.6158490251273,1,1
116,Old Fountain,EC1V 9NU,London Borough of Islington,51.526891,-0.089027,2.0,8.5,0.9819113025258992,299,1,2.0,131.39327656818145,55.31512990574634,1,1
117,The Understudy,SE1 9PX,London Borough of Lambeth,51.507632,-0.113841,1.0,8.9,0.9906064486090096,117,1,2.0,391.21111476511214,462.0852906984923,1,1
118,Cittie of Yorke,WC1V 6BN,London Borough of Camden,51.518437,-0.112948,1.0,8.5,0.9889931323478058,158,1,1.0,124.7026053117546,416.6320581239547,1,1
119,Carpenter's Arms,E2 6EG,London Borough of Tower Hamlets,51.523989,-0.067348,2.0,9.0,0.9557909440111744,207,0,0.0,740.0650299852626,708.8022381869387,0,0
120,The Pride of Spitalfields,E1 5LJ,London Borough of Tower Hamlets,51.518945,-0.071245,1.0,8.5,0.9637038761494588,238,1,2.0,424.7136991293481,91.29745165615527,1,1
121,The Old Bank of England,EC4A 2LT,City of London Corporation,51.513916,-0.111302,1.0,8.2,0.9886462577115586,91,2,3.0,341.4115945298208,231.3715239259568,1,1
122,The Three Johns,N1 9PF,London Borough of Islington,51.532948,-0.109065,1.0,9.0,0.9807729018740542,216,1,1.0,231.25356568300677,174.88510707369488,1,1
123,Seven Stars,WC2A 2JB,London Borough of Camden,51.51507,-0.113256,1.0,8.2,0.978258642765685,119,2,2.0,393.7876367632726,188.20653803931896,1,1
124,Rosemary Branch,N1 3DT,London Borough of Islington,51.537583,-0.087005,1.0,8.8,0.9852170876498662,139,0,0.0,1268.4385917469726,537.7583724447427,0,0
125,The Narrow Boat,N1 8PZ,London Borough of Islington,51.533078,-0.096802,2.0,8.4,0.9787824467465952,164,0,0.0,624.6855706035356,593.9085944609863,0,0
126,Upstairs at the Ten Bells,E1 6LY,London Borough of Tower Hamlets,51.51935,-0.074203,2.0,8.0,0.9895378884879524,266,1,4.0,497.24852272417735,238.1705548714319,1,1
127,The Telephone Exchange,SE1 9SG,London Borough of Southwark,51.505084,-0.088106,1.0,7.9,0.9960563380281692,213,1,1.0,228.9795215028416,6.529719307178247,1,1
128,Marksman,E2 7SJ,London Borough of Tower Hamlets,51.530863,-0.069572,1.0,8.5,0.9911395646606914,206,0,0.0,1085.4901988586244,913.4113613055634,0,0
129,The Roebuck,SE1 4YG,London Borough of Southwark,51.498095,-0.090711,2.0,8.2,0.9644022814573392,178,1,2.0,410.03396506472,388.8963019981606,1,1
130,Anchor Bankside,SE1 9EF,London Borough of Southwark,51.507187,-0.092961,1.0,7.6,0.9938586893260388,174,2,1.0,500.2217752062487,414.4240751063143,0,1
131,The Porterhouse,WC2E 7NA,City of Westminster,51.510321,-0.123561,2.0,8.3,0.9872983354673496,625,4,4.0,310.68594252883594,96.15998765258765,1,1
132,"Draft House, Tower Bridge",SE1 2UP,London Borough of Southwark,51.502839,-0.076931,3.0,8.0,0.9895937609125828,84,0,1.0,613.7993797525146,119.98367112731962,0,1
133,Princess Louise,WC1V 7BW,London Borough of Camden,51.51728,-0.121619,1.0,8.1,0.9893400069840532,243,1,1.0,76.34606869384012,473.8863696254604,1,1
134,The Buxton,E1 6TD,London Borough of Tower Hamlets,51.517236,-0.070382,1.0,7.8,0.9808404143871492,260,2,2.0,252.34320023651983,120.69943226784844,1,1
135,The Woolpack,SE1 3UB,London Borough of Southwark,51.500766,-0.082037,2.0,7.9,0.9852706320568037,137,0,1.0,545.3609332751167,375.3668359471636,0,1
136,Royal Oak,SE11 6QU,London Borough of Lambeth,51.49313,-0.11277,1.0,8.4,0.929691537655686,132,0,4.0,647.4220555004332,339.311284647981,0,1
137,The Owl & Pussycat,E2 7DP,London Borough of Tower Hamlets,51.52428825,-0.0754746015882803,2.0,7.7,0.9875241531835642,400,0,0.0,858.7961097939854,741.3674229950477,0,0
138,The Hydrant,EC3R 8BG,City of London Corporation,51.510305,-0.086303,1.0,7.4,0.9849214294028634,227,4,0.0,26.61868080298154,510.1359664857698,1,0
139,Waxy O'Connor's,W1D 6DD,City of Westminster,51.51078,-0.132348,2.0,8.3,0.9889116517285532,1188,1,2.0,125.3501026988738,299.6358605536426,1,1
140,The Wheatsheaf,SE1 9AA,London Borough of Southwark,51.505267,-0.0912,2.0,7.6,0.9855942265161216,202,2,1.0,441.26410424111066,221.5360318081921,1,1
141,Captain Kidd,E1W 2NE,London Borough of Tower Hamlets,51.50332,-0.058146,1.0,8.2,0.9736002793621232,68,0,0.0,195.33518999723745,852.1346385843232,1,0
142,The Prospect of Whitby,E1W 3SJ,London Borough of Tower Hamlets,51.507103,-0.051082,1.0,8.3,0.9853404725875916,72,0,0.0,449.7955341912908,676.029476340395,1,0
143,De Hems Dutch Cafe Bar,W1D 5BW,City of Westminster,51.512129,-0.131253,2.0,8.1,0.9891374694447678,1200,3,1.0,204.37207615187896,219.85918233508687,1,1
144,Sherlock Holmes,WC2N 5DB,City of Westminster,51.507324,-0.1252,2.0,8.0,0.9948294727039926,425,2,5.0,156.6738240334492,160.97975692635342,1,1
145,The White Hart,E1 4TP,London Borough of Tower Hamlets,51.520232,-0.056084,2.0,8.0,0.9888581073216156,252,1,0.0,252.11095811187968,900.5187560169337,1,0
146,The Angel,SE16 4NB,London Borough of Southwark,51.500684,-0.059019,1.0,8.0,0.9709556512629496,69,1,0.0,420.55211627610777,728.1007936470985,1,0
147,The Old Shades,SW1A 2BX,City of Westminster,51.506493,-0.126804,2.0,7.9,0.9869491328134092,346,2,6.0,274.4914527221685,159.2722917001517,1,1
148,The Dickens Inn,E1W 1UH,London Borough of Tower Hamlets,51.506611,-0.070149,2.0,7.5,0.99023396577814,61,0,0.0,589.2992724402872,711.530734055655,0,0
149,Camden Head,N1 8DY,London Borough of Islington,51.535608,-0.102957,2.0,7.6,0.977692934466302,234,1,0.0,394.3847164830409,588.1915925325616,1,0
150,The Minories,EC3N 1JL,City of London Corporation,51.510836,-0.074717,1.0,7.3,0.9935281108136422,191,2,0.0,177.88362437755626,841.612010977729,1,0
151,The Horniman at Hays,SE1 2HD,London Borough of Southwark,51.505728,-0.083503,2.0,7.2,0.9953625887556744,150,1,1.0,100.61498419774648,320.064999395115,1,1
152,The Eagle,N1 7LB,London Borough of Hackney,51.52861,-0.091645,2.0,7.2,0.9871074380165288,233,1,2.0,393.4941706436686,18.54876694084925,1,1
153,The Red Lion,SW1A 2NH,City of Westminster,51.502051,-0.125749,1.0,7.7,0.991514375509254,120,1,3.0,110.8167896555993,127.57862352760506,1,1
154,The Wellington,WC2R 0HS,City of Westminster,51.511424,-0.119594,2.0,7.4,0.9953975090210686,343,3,4.0,372.3125095828508,378.4368859820172,1,1
155,The Castle,E1 1LN,London Borough of Tower Hamlets,51.514881,-0.06905,1.0,7.2,0.9924735187987428,294,2,2.0,191.09254742877417,395.299760170218,1,1
156,Liberty Bounds,EC3N 4AA,City of London Corporation,51.509744,-0.078495,2.0,7.0,0.9943266208823188,163,1,0.0,117.85828822324972,823.9000714369723,1,0
157,O'Neill's,W1D 6PU,City of Westminster,51.511277,-0.132138,2.0,7.4,0.9954091491095332,1199,1,2.0,170.35949408242243,273.9423810297736,1,1
158,The Salisbury Pub,WC2N 4AP,City of Westminster,51.510909,-0.127233,1.0,7.3,0.9895658247002678,1240,3,4.0,107.695628081205,99.48187468731749,1,1
159,The Old Thameside Inn,SE1 9DG,London Borough of Southwark,51.506974,-0.091718,2.0,6.8,0.9823163776044698,195,2,1.0,500.7659476392897,331.24651101474666,0,1
160,The Marquis of Cornwallis,WC1N 1AP,London Borough of Camden,51.524424,-0.125061,2.0,7.2,0.9951134908625304,174,1,1.0,140.57453072171907,162.24518638796243,1,1
161,Shakespeares Head,WC2B 6BG,London Borough of Camden,51.516833,-0.119602,1.0,7.0,0.996980561052264,225,1,2.0,72.46809796848733,456.8796120378984,1,1
162,Goodmans Field,E1 8AN,London Borough of Tower Hamlets,51.511573,-0.072804,1.0,6.8,0.988490280526132,214,3,0.0,317.4976819195461,735.5514108586775,1,0
163,The Ring,SE1 8HA,London Borough of Southwark,51.503556,-0.104875,3.0,6.9,0.9910604120591316,193,1,0.0,32.25670208665929,579.1194780399659,1,0
164,George IV,WC2A 2HE,City of Westminster,51.514682,-0.116972,1.0,6.9,0.972897218018857,224,2,2.0,366.3172407389223,203.0559641542353,1,1
165,Pommelers Rest,SE1 2UN,London Borough of Southwark,51.502449,-0.077168,1.0,6.8,0.9929624025142592,91,0,1.0,620.6606607460766,79.51077109828402,0,1
166,The Clarence,SW1A 2HP,City of Westminster,51.506172,-0.126724,1.0,7.0,0.988134093819113,288,2,6.0,280.3368746685694,123.50141418793775,1,1
167,Elephant & Castle,SE1 6BN,London Borough of Southwark,51.495791,-0.099753,1.0,6.9,0.9839343499010592,257,1,2.0,134.1689609888354,422.092622601565,1,1
168,The Cross Keys,WC2H 9EB,London Borough of Camden,51.514539,-0.124751,1.0,6.9,0.9768455360260738,615,4,1.0,165.61292068402022,407.93139846651593,1,1
169,The White Hart,E1 7RA,London Borough of Tower Hamlets,51.515771,-0.070889,1.0,6.7,0.9938400651844954,280,2,2.0,93.40391165753846,264.244280506019,1,1
170,St Stephens Tavern,SW1A 2JR,City of Westminster,51.501093,-0.125416,1.0,7.0,0.9966173902921662,118,1,3.0,38.66365078156811,197.77915338144572,1,1
171,Doggetts Coat & Badge,SE1 9UD,London Borough of Southwark,51.508486,-0.104715,2.0,6.5,0.9942172040507508,87,1,1.0,330.5029422868647,353.87977737609606,1,1
172,The Barrowboy and Banker,SE1 9QQ,London Borough of Southwark,51.50622,-0.088653,2.0,6.5,0.9954394133395412,203,1,1.0,281.8724818596753,133.35753194703005,1,1
173,The Paternoster,EC4M 7DZ,City of London Corporation,51.515147,-0.098648,2.0,6.2,0.9909928995460364,130,2,3.0,74.26003930228916,357.4314448728709,1,1
174,The Coal Hole,WC2R 0DW,City of Westminster,51.51031,-0.121462,1.0,6.7,0.9918519380747294,402,4,4.0,350.78216983898227,221.43858252295797,1,1
175,The Crown & Two Chairmen,W1D 3SB,City of Westminster,51.513917,-0.132365,2.0,6.8,0.9840693749272494,1271,2,1.0,311.8424788598495,388.6844746249016,1,1
176,Penderel's Oak,WC1V 7HP,London Borough of Camden,51.517995,-0.115506,1.0,6.4,0.9934489582120823,172,2,2.0,304.1248341123581,342.17533365939977,1,1
177,The Montagu Pyke,WC2H 0DT,City of Westminster,51.514026,-0.130009,1.0,6.6,0.9890490047724364,1173,3,1.0,264.59422348385414,300.5219675094292,1,1
178,The Railway Tavern,EC2M 7NX,City of London Corporation,51.517473,-0.083313,1.0,5.9,0.9935746711675008,302,2,3.0,63.28119900154809,222.23005076927384,1,1
179,Hamilton Hall,EC2M 7PY,City of London Corporation,51.518963,-0.081491,1.0,5.9,0.9976743103247584,300,2,2.0,158.07789921691614,173.33163801471412,1,1
180,Crown & Anchor,WC2H 9PS,London Borough of Camden,51.514034,-0.12515,1.0,6.3,0.9901687812827378,724,3,2.0,122.31642921146312,346.414481650694,1,1
181,The Sir John Oldcastle,EC1M 3JF,London Borough of Camden,51.519845,-0.105863,2.0,5.7,0.993004306832732,142,2,1.0,76.90172745849937,375.0199841887506,1,1
182,Theodore Bullfrog,WC2N 6HL,City of Westminster,51.508844,-0.123909,1.0,6.0,0.9744337096961936,543,4,5.0,203.83536716649525,78.67934343155095,1,1
183,Maple Leaf,WC2E 7LJ,City of Westminster,51.511006,-0.122778,2.0,5.9,0.980144337096962,605,4,4.0,252.67658414526937,189.279826099655,1,1
184,The Hole in the Wall,SE1 8SQ,London Borough of Lambeth,51.504149,-0.113121,1.0,5.7,0.9916726807123736,229,1,1.0,103.88479874218658,102.99610716908782,1,1
185,The York,N1 8EQ,London Borough of Islington,51.533785,-0.104983,2.0,5.7,0.9871330462111512,240,1,1.0,150.29991633061556,418.4132983253658,1,1
186,Millers,N1 9DX,London Borough of Islington,51.531529,-0.121105,1.0,5.8,0.9794436037713886,251,1,0.0,93.20374463922626,685.6369806463237,1,0
187,The Oval Tavern,CR0 6BR,London Borough of Croydon,51.378307,-0.08766,1.0,8.1,0.9478966360144336,137,0,1.0,7681.229202474164,347.7361815552481,0,1
188,Dog & Bull,CR0 1RG,London Borough of Croydon,51.373001,-0.10156,1.0,7.4,0.9541543475730416,343,0,2.0,7227.733437749232,483.2962605017824,0,1
189,The Royal Standard,CR0 1SS,London Borough of Croydon,51.369907,-0.1017,1.0,7.2,0.962979862646956,295,0,2.0,7380.503729342208,410.9019664388749,0,1
190,The Spread Eagle,CR0 1NX,London Borough of Croydon,51.372206,-0.100033,1.0,7.0,0.964828308695146,335,0,2.0,7362.241811683257,345.9524118662748,0,1
191,The Crown & Pepper,CR0 1NF,London Borough of Croydon,51.368942,-0.09918,1.0,7.0,0.9276452101035968,247,0,2.0,7585.558238891627,283.24411776958914,0,1
192,The Green Dragon,CR0 1NA,London Borough of Croydon,51.371635,-0.100653,1.0,6.9,0.9894750320102432,319,0,2.0,7353.110507940591,355.67331239398465,0,1
193,The Tree House,CR0 1DP,London Borough of Croydon,51.365253,-0.099315,1.0,7.1,0.93079734605983,182,0,0.0,7786.182455019069,621.0967304750919,0,0
194,The Clifton Arms,SE25 6NJ,London Borough of Croydon,51.396457,-0.086244,1.0,7.7,0.9258875567454312,96,0,0.0,6650.302556765469,1542.5225733232824,0,0
195,The Plough,CR0 4QR,London Borough of Sutton,51.367301,-0.131859,1.0,6.7,0.9373553719008264,27,0,0.0,5834.048833087203,1256.539353153316,0,0
196,The George,CR0 1LA,London Borough of Croydon,51.374118,-0.098509,1.0,6.0,0.9799534396461412,378,0,2.0,7363.814334869891,441.75653718231166,0,1
197,The Skylark,CR0 1DP,London Borough of Croydon,51.366174,-0.099305,1.0,6.1,0.9708788266790828,181,0,0.0,7733.136589463366,527.9532896110578,0,0
198,Crown & Sceptre,CR2 6RB,London Borough of Croydon,51.359532,-0.096573,1.0,6.2,0.979501804213712,74,0,0.0,8295.675707420873,1209.3404341156645,0,0
199,Two Brewers,CR0 2DW,London Borough of Croydon,51.388268,-0.090023,1.0,6.4,0.9236759399371436,87,0,0.0,6953.8661643827245,748.4181914497009,0,0
200,Goose on the Market,CR0 1RG,London Borough of Croydon,51.372735,-0.101447,1.0,5.5,0.0936165754859737,339,0,2.0,7248.088128997917,460.3179334160425,0,1
201,The Ship of Fools,CR0 2RE,London Borough of Croydon,51.378538,-0.103593,1.0,6.0,0.9263065999301596,300,0,1.0,6792.555092303659,110.7043999778388,0,1
202,Bedford Tavern,CR0 2EF,London Borough of Croydon,51.378826,-0.095108,1.0,5.8,0.9569875451053428,243,0,1.0,7230.583260545911,433.1628716485464,0,1
203,Porter and Sorter,CR0 6BT,London Borough of Croydon,51.375946,-0.091831,1.0,5.6,0.9863065999301596,157,0,1.0,7606.548423310089,62.89629169986762,0,1
204,The Drapers Arms,W5 5DB,London Borough of Ealing,51.51186,-0.305193,1.0,8.4,0.9512396694214876,165,1,2.0,430.6381236650906,347.71983264181006,1,1
205,The Castle Inn,W5 5EU,London Borough of Ealing,51.506168,-0.305337,1.0,8.1,0.9379885927133046,41,0,0.0,621.7316145622876,736.2086271413663,0,0
206,The Grange,W5 3XH,London Borough of Ealing,51.508335,-0.296239,1.0,8.1,0.9769572808753346,45,0,0.0,582.0157009406759,1051.4606444297312,0,0
207,Red Lion,W5 5RA,London Borough of Ealing,51.507921,-0.304918,2.0,7.9,0.9513607263415202,66,0,0.0,809.5753346342242,587.5632607578852,0,0
208,Express Tavern,TW8 0EW,London Borough of Hounslow,51.489081,-0.28782,1.0,8.8,0.9784169479688044,55,0,1.0,883.3675236447665,359.0865135063205,0,1
209,The Dodo Micropub,W7 3TR,London Borough of Ealing,51.506847,-0.337546,1.0,8.4,0.9592270981259458,100,0,0.0,1521.5800943813772,932.541532465957,0,0
210,The Haven Arms,W5 2HZ,London Borough of Ealing,51.516925,-0.300023,1.0,7.5,0.921389826562682,110,1,0.0,247.37901485714357,888.869798023883,1,0
211,The Duke of Kent,W13 8DL,London Borough of Ealing,51.525272,-0.320271,2.0,7.8,0.93328832499127,14,0,0.0,1292.4846153995331,1614.821483818123,0,0
212,The Station House,W3 6BH,London Borough of Ealing,51.508768,-0.263176,1.0,8.3,0.9765754859736934,69,0,0.0,12.398524565345411,815.4675088665896,1,0
213,The Lord Nelson,TW8 9NY,London Borough of Hounslow,51.491341,-0.308527,2.0,7.8,0.926995693167268,78,0,0.0,1000.2971822425194,696.9544532954051,0,0
214,The Sir Michael Balcon,W5 3TJ,London Borough of Ealing,51.513537,-0.298406,1.0,7.0,0.9780048888371552,143,1,0.0,239.1667357737753,833.1931418804443,1,0
215,The Aeronaut,W3 9BH,London Borough of Ealing,51.508508,-0.275519,2.0,7.5,0.952291933418694,145,0,1.0,691.9981564746762,39.28639842478434,0,1
216,The Griffin,TW8 0NP,London Borough of Hounslow,51.487058,-0.302964,1.0,7.8,0.9280805494121755,97,0,1.0,1565.232699096878,763.0621270115146,0,0
217,The North Star,W5 5JN,London Borough of Ealing,51.513748,-0.301944,2.0,6.8,0.9707018973344196,163,1,0.0,130.39910660820803,602.099870148226,1,0
218,The Rocket,W3 6BD,London Borough of Ealing,51.508668,-0.264153,1.0,7.4,0.87776277499709,90,0,0.0,79.70179749007144,747.5872931087636,1,0
219,The Fox Inn,W7 2PJ,London Borough of Ealing,51.50424,-0.343336,1.0,7.4,0.9598510068676522,20,0,0.0,1576.2016951718635,1409.0417721916265,0,0
220,The New Inn,W5 5EX,London Borough of Ealing,51.504955,-0.305795,1.0,6.6,0.94941683156792,40,1,0.0,483.4314518186689,829.4203766064871,1,0
221,The Globe,TW8 9NA,London Borough of Hounslow,51.490524,-0.309753,1.0,7.0,0.9463741124432544,60,0,0.0,1064.5712543669165,809.4271985100837,0,0
222,The Lodge Tavern,W5 3TA,London Borough of Ealing,51.513796,-0.299808,1.0,6.2,0.939005936445117,144,1,0.0,148.25218793455227,745.3010518258316,1,0
223,The Village Inn,W5 1QP,London Borough of Ealing,51.526502,-0.312652,1.0,6.5,0.9177837271563264,26,0,0.0,1373.144489449044,1412.204413961694,0,0
224,The Forester,W13 9EP,London Borough of Ealing,51.506154,-0.320372,1.0,6.4,0.9803072983354674,77,0,1.0,858.885719117471,453.7778481456317,0,1
225,The Talbot Inn,W3 8JB,London Borough of Ealing,51.506495,-0.273439,1.0,6.6,0.8772971714585031,162,0,1.0,550.0670177617252,249.86969860242945,0,1
226,Princess Royal,TW8 0LF,London Borough of Hounslow,51.488181,-0.301003,1.0,6.6,0.8793341869398208,104,0,0.0,1481.3102398775216,591.5937033006618,0,0
227,The Greystoke,W5 3HU,London Borough of Ealing,51.516955,-0.290291,1.0,5.8,0.9532999650797346,36,1,0.0,181.26320065883465,1415.3355571891625,1,0
228,The Viaduct,W7 3TD,London Borough of Ealing,51.508424,-0.341908,1.0,6.1,0.9701198929111862,86,0,0.0,1839.854284564368,1198.756767735252,0,0
229,The Belvedere,W3 6QX,London Borough of Ealing,51.506873,-0.268905,1.0,5.9,0.851616808287743,180,0,1.0,457.2700811927922,457.55714679978576,1,1
230,The Red Lion & Pineapple,W3 9BP,London Borough of Ealing,51.50824,-0.276597,1.0,5.7,0.9878756838551972,142,0,1.0,646.9734276179787,118.4118411607656,0,1
231,Myllet Arms,UB6 8TE,London Borough of Ealing,51.533047,-0.322995,1.0,5.2,0.9344802700500524,22,1,0.0,408.1302521630548,2096.1307665535487,1,0
232,Jolly Farmers,EN2 7QS,London Borough of Enfield,51.654837,-0.107763,1.0,8.0,0.9270213013618904,16,0,0.0,1860.9921222745295,1904.3866798524743,0,0
233,Little Green Dragon,N21 2AD,London Borough of Enfield,51.636045,-0.09087,1.0,8.0,0.9904271912466536,15,0,0.0,2570.580989110323,800.3764843785478,0,0
234,Kings Head,EN2 6LL,London Borough of Enfield,51.652603,-0.082556,1.0,7.0,0.9637411244325456,115,0,1.0,3454.7232484512256,334.43247706068,0,1
235,The Goat,EN3 4HB,London Borough of Enfield,51.646867,-0.04726,1.0,7.8,0.9869188685834012,121,0,0.0,5776.103936491311,2452.6997737902907,0,0
236,The Cricketers,EN2 6QA,London Borough of Enfield,51.656459,-0.087395,1.0,7.0,0.9121196601094168,31,0,0.0,3233.0545431380074,517.5261786956506,0,0
237,The Stag and Hounds,N9 9JW,London Borough of Enfield,51.6336569,-0.0727636,1.0,7.4,0.9213572343149808,38,0,0.0,3790.744983449528,1743.5061086960948,0,0
238,Jolly Butchers,EN1 3JS,London Borough of Enfield,51.659445,-0.079876,1.0,6.9,0.9421161680828776,59,0,1.0,3832.4427429659313,470.3301770325709,0,1
239,The Old Wheatsheaf,EN2 6SE,London Borough of Enfield,51.653768,-0.089591,1.0,6.8,0.9489954603654988,81,0,0.0,3005.227232542845,670.0434606535495,0,0
240,The Moon Under Water,EN2 6NN,London Borough of Enfield,51.658929,-0.087722,1.0,6.7,0.9622209288790596,31,0,0.0,3308.083363129789,664.8341772414147,0,0
241,O'Neill's,EN2 6LE,London Borough of Enfield,51.651818,-0.081325,1.0,6.4,0.9542637644046096,152,0,1.0,3525.2602263924523,386.56304769104287,0,1
242,Rose & Crown,EN2 9AJ,London Borough of Enfield,51.67126,-0.083766,1.0,7.0,0.9439972063787684,4,0,0.0,4251.802160429621,1800.8989397845817,0,0
243,Crown & Horseshoes,EN2 6PZ,London Borough of Enfield,51.656036,-0.087194,1.0,6.5,0.9161750669305088,75,0,1.0,3231.944137737886,493.3927911179821,0,1
244,The Salisbury Arms,N21 3NP,London Borough of Enfield,51.63301,-0.103004,1.0,7.1,0.9744360377138866,18,0,0.0,1702.3897341305558,508.0134162546444,0,0
245,The Stag,EN2 6PH,London Borough of Enfield,51.65287,-0.086742,1.0,5.8,0.9532673728320336,102,0,0.0,3175.938622456576,523.594654126778,0,0
246,The Sporting Green,EN3 5JF,London Borough of Enfield,51.656702,-0.047118,1.0,6.5,0.9201489931323478,100,0,0.0,5941.361602255277,2285.5830072524504,0,0
247,The George,EN2 6LE,London Borough of Enfield,51.651976,-0.081412,1.0,5.5,0.0215341636596438,151,0,1.0,3521.8116909054843,370.74104199426046,0,1
248,The Ridgeway Tavern,EN2 8JF,London Borough of Enfield,51.662837,-0.10407,1.0,6.2,0.9384541962518916,118,0,0.0,2577.083156163599,1853.853629659408,0,0
249,Cutty Sark Tavern,SE10 9PD,Royal Borough of Greenwich,51.486376,-0.000292,2.0,8.9,0.9762891397974623,58,0,0.0,1600.0412931849694,570.7459306830323,0,0
250,Plume of Feathers,SE10 9LZ,Royal Borough of Greenwich,51.48197,-0.000874,1.0,8.1,0.9340635548830172,33,0,0.0,2090.195491396281,776.1788099942307,0,0
251,The Duke,SE8 3BU,Royal Borough of Greenwich,51.481192,-0.020377,2.0,8.6,0.9642346641834478,107,0,0.0,1027.58355534092,797.7497791967668,0,0
252,Trafalgar Tavern,SE10 9NW,Royal Borough of Greenwich,51.484464,-0.004294,2.0,7.9,0.990981259457572,37,0,0.0,1871.3766289757527,590.3888801664889,0,0
253,The River Ale House,SE10 0RJ,Royal Borough of Greenwich,51.486287,0.013286,1.0,8.7,0.9931230357350715,81,0,1.0,1722.9354669789475,293.24634807480805,0,1
254,The Vanbrugh,SE10 9EZ,Royal Borough of Greenwich,51.483457,0.008083,1.0,8.2,0.9689977883831916,68,0,0.0,1926.929351898397,693.7174968403518,0,0
255,Richard the First,SE10 8RT,Royal Borough of Greenwich,51.476648,-0.009698,1.0,8.1,0.9524246304271912,98,0,1.0,1676.7397976024365,150.71204970262326,0,1
256,The Dog & Bell,SE8 3JD,London Borough of Lewisham,51.483374,-0.02591,1.0,8.7,0.9761145384704925,82,0,0.0,866.892019396943,598.518685700026,0,0
257,The Gipsy Moth,SE10 9BL,Royal Borough of Greenwich,51.48227,-0.009748,2.0,7.8,0.9784984285880572,100,0,1.0,1758.1013949710862,477.2275924277155,0,1
258,The Greenwich Union,SE10 8RT,Royal Borough of Greenwich,51.47643,-0.00974,2.0,8.0,0.7070701897334419,89,0,1.0,1675.1647196222036,174.2282825261107,0,1
259,Royal Albert,SE14 6TJ,London Borough of Lewisham,51.4751632,-0.0286207,1.0,8.7,0.9701105808404143,197,0,0.0,438.8508374464445,522.6571328898498,1,0
260,The Brookmill,SE8 4EJ,London Borough of Lewisham,51.470842,-0.022017,1.0,8.5,0.955807240135025,138,0,0.0,1095.9215449333487,1079.4111977778448,0,0
261,Job Centre,SE8 4NS,London Borough of Lewisham,51.478351,-0.025767,1.0,8.2,0.923906413688744,162,0,2.0,572.6146285692179,433.99072296551134,0,1
262,The Bird's Nest,SE8 4RZ,London Borough of Lewisham,51.476173,-0.02252,1.0,8.1,0.9388569433127693,134,0,0.0,797.9124682353915,737.0403952791688,0,0
263,The Pelton Arms,SE10 9PQ,Royal Borough of Greenwich,51.486786,0.002794,2.0,7.7,0.9835711791409616,81,0,0.0,1532.6171463276155,730.2828660525521,0,0
264,The Guildford Arms,SE10 8JY,Royal Borough of Greenwich,51.474197,-0.01604,1.0,7.7,0.9545058782446748,125,0,0.0,1284.8392912905251,589.8738027949531,0,0
265,Greenwich Tavern,SE10 9JH,Royal Borough of Greenwich,51.479844,-0.007202,1.0,7.4,0.983198696310092,102,0,1.0,1868.132880196904,287.0196771267176,0,1
266,The Ship & Whale,SE16 7LT,London Borough of Southwark,51.496846,-0.034081,1.0,8.5,0.9633849377255268,24,0,0.0,1037.4259868772454,1140.6943550249723,0,0
267,Princess of Wales,SE3 0RL,London Borough of Lewisham,51.469343,0.010453,1.0,8.0,0.9677546269351648,34,0,0.0,3197.5420125689766,656.0926953114785,0,0
268,Coach & Horses,SE10 9HZ,Royal Borough of Greenwich,51.481547,-0.009,1.0,7.2,0.9795134443021768,116,0,1.0,1784.8046577343634,403.21815580107307,0,1
269,Kings Arms,SE10 9JH,Royal Borough of Greenwich,51.480781,-0.008003,1.0,7.1,0.9573972762192992,117,0,1.0,1832.01778211618,342.58943171096865,0,1
270,The Ship,E14 3AG,London Borough of Tower Hamlets,51.487743,-0.01785,1.0,7.4,0.9682318705622164,45,0,0.0,1601.4424161790723,792.2319863492463,0,0
271,Rose of Denmark,SE7 7AL,Royal Borough of Greenwich,51.487224,0.026848,1.0,7.7,0.9796624374345244,83,0,0.0,2188.4541844612654,673.9022712993552,0,0
272,Ashburnham Arms,SE10 8UH,Royal Borough of Greenwich,51.475746,-0.015279,1.0,7.1,0.9453847049237574,124,0,1.0,1300.8378418175946,437.9682142638287,0,1
273,The Royal Standard,SE3 7JQ,Royal Borough of Greenwich,51.476802,0.018752,1.0,7.2,0.979541380514492,55,0,0.0,2842.4555926986477,995.579876584458,0,0
274,The Dacre Arms,SE13 5BU,London Borough of Lewisham,51.461017,0.003367,1.0,7.3,0.9821906646490514,63,0,0.0,3156.051818698885,961.1896354735172,0,0
275,Fox & Firkin,SE13 6JZ,London Borough of Lewisham,51.456978,-0.01409,1.0,7.4,0.9893702712140612,171,0,0.0,2649.068905090399,792.8053049377157,0,0
276,Ye Olde Rose & Crown Greenwich,SE10 8ER,Royal Borough of Greenwich,51.479438,-0.007815,1.0,6.5,0.9313770224653708,103,0,1.0,1819.8921600815977,225.0551476182136,0,1
277,The Yacht,SE10 9NP,Royal Borough of Greenwich,51.484648,-0.003816,1.0,6.4,0.9468769642649284,38,0,0.0,1842.3228468769796,581.6807135499415,0,0
278,The Crown,SE3 0BS,London Borough of Lewisham,51.466605,0.007321,1.0,6.9,0.9665556978233034,43,0,0.0,3094.3998976153352,767.6353552298973,0,0
279,The Walpole,SE14 6LA,London Borough of Lewisham,51.476014,-0.033137,1.0,6.9,0.9132021883366314,175,0,2.0,158.62099821360283,388.9779985997874,1,1
280,The Ferry House,E14 3DT,London Borough of Tower Hamlets,51.48654,-0.013367,1.0,6.5,0.9663857525317192,62,0,0.0,1749.1142099340589,565.3050465354268,0,0
281,The Gate Clock,SE10 9RB,Royal Borough of Greenwich,51.481517,-0.010847,1.0,6.4,0.9905063438482132,127,0,1.0,1660.722731137308,396.5927899273605,0,1
282,The Observatory,SE10 0DY,Royal Borough of Greenwich,51.503961,0.00357,1.0,7.0,0.9710185077406588,39,1,0.0,378.1801687841649,1352.8766253990805,1,0
283,The Oystercatcher,SE10 9FR,Royal Borough of Greenwich,51.482964,-0.014723,1.0,6.4,0.9429635665231056,127,0,0.0,1465.6596970930214,640.6340559621448,0,0
284,Hardys Freehouse,SE10 9UW,Royal Borough of Greenwich,51.483967,0.001441,1.0,6.2,0.92735420789198,65,0,0.0,1851.1046234144533,841.6476353889218,0,0
285,Enderby House,SE10 0TH,Royal Borough of Greenwich,51.490425,0.003124,1.0,6.4,0.9673705040158304,38,0,0.0,1127.4437952574974,692.6206231635603,0,0
286,Anchor & Hope,SE7 7SS,Royal Borough of Greenwich,51.493575,0.02862,1.0,6.8,0.9629775346292632,2,0,0.0,1898.1880060104263,1168.1975285405765,0,0
287,Suttons Radio,SE13 6AA,London Borough of Lewisham,51.46032,-0.010774,1.0,6.4,0.8636130834594343,190,0,2.0,2480.601564827359,370.8249879509912,0,1
288,Admiral Hardy,SE10 9HY,Royal Borough of Greenwich,51.481971,-0.009199,1.0,5.6,0.8663531602840182,118,0,1.0,1784.4578598922783,447.5668025770595,0,1
289,The Brockley Barge,SE4 2RR,London Borough of Lewisham,51.464126,-0.036442,1.0,6.3,0.9960121056920032,78,0,1.0,1333.463317153108,339.90583601772624,0,1
290,Spanish Galleon,SE10 9BL,Royal Borough of Greenwich,51.481671,-0.009839,1.0,5.2,0.8850517983936678,116,0,1.0,1732.5367702052338,410.41024061725415,0,1
291,The Amersham Arms,SE14 6TY,London Borough of Lewisham,51.475719,-0.032494,1.0,5.9,0.9645349784658364,187,0,2.0,206.52864777579407,414.13808323351947,1,1
292,The Railway,SE3 9LE,London Borough of Lewisham,51.465651,0.008934,1.0,5.9,0.9692631824001864,43,0,0.0,3238.933484269002,911.1766421152088,0,0
293,The Wickham Arms,SE4 1TF,London Borough of Lewisham,51.468624,-0.032697,1.0,6.0,0.9562588755674544,72,0,0.0,967.9622267733027,893.2478454684025,0,0
294,The Lord Nelson,E14 3BD,London Borough of Tower Hamlets,51.487362,-0.013141,1.0,5.2,0.8469747410080316,54,0,0.0,1816.306232015378,502.8400840580752,0,0
295,The Watch House,SE13 6JP,London Borough of Lewisham,51.459952,-0.01173,1.0,5.9,0.9347316959608892,186,0,2.0,2470.338046373005,426.3567052221541,0,1
296,Marquis of Granby,SE14 6AG,London Borough of Lewisham,51.475564,-0.035881,1.0,5.8,0.9502828541496916,127,0,0.0,243.2864522352112,510.7330522302197,1,0
297,The Henry Addington,E14 4PH,London Borough of Tower Hamlets,51.50447,-0.022204,1.0,5.8,0.9768990804330112,131,1,0.0,187.16436170272536,1616.9264973426134,1,0
298,The Tooke Arms,E14 8NH,London Borough of Tower Hamlets,51.498207,-0.025564,1.0,5.6,0.8495355604702596,177,0,0.0,719.460892551067,1403.7518044048309,0,0
299,O'Neill's,SE3 0BH,London Borough of Lewisham,51.466742,0.007953,1.0,5.3,0.9117285531370038,43,0,0.0,3129.031150991923,772.2514083827131,0,0
300,The Ship York,SE16 5LJ,London Borough of Southwark,51.49872,-0.034495,1.0,5.6,0.8963915725759516,23,0,0.0,1054.7048524106765,1145.578694118465,0,0
301,The Old Tigers Head,SE12 8RU,London Borough of Lewisham,51.457491,0.009082,1.0,5.7,0.949342335001746,87,0,0.0,3706.7217168027937,1478.6723658088165,0,0
302,The Merchant,E14 4DH,London Borough of Tower Hamlets,51.506206,-0.022061,1.0,5.6,0.2110254917937376,115,1,0.0,325.0873090681536,1759.8317241687366,1,0
303,The Moby Dick,SE16 7PL,London Borough of Southwark,51.495742,-0.03933,1.0,5.4,0.9783564195087884,54,0,0.0,654.053523799888,776.0499785906791,0,0
304,The Fine Line,E14 4DH,London Borough of Tower Hamlets,51.505946,-0.021854,1.0,5.2,0.555129786986381,115,1,0.0,292.8328584176578,1728.1549583936576,1,0
305,The Chesham Arms,E9 6DU,London Borough of Hackney,51.547589,-0.050124,1.0,9.4,0.9549505296240252,286,0,0.0,479.8016733483957,573.143644409332,1,0
306,The Kenton,E9 7AB,London Borough of Hackney,51.54412,-0.04436,3.0,8.5,0.9577162146432312,180,0,0.0,340.4502058892161,895.0117369285613,1,0
307,The Hemingway,E9 7JL,London Borough of Hackney,51.537265,-0.048908,2.0,8.3,0.9561354906297288,107,0,0.0,1161.9634124946667,939.5688405826236,0,0
308,The Cock Tavern,E8 1EJ,London Borough of Hackney,51.546271,-0.055325,2.0,8.2,0.9847398440228146,187,0,1.0,187.0369645073507,198.2829716108904,1,1
309,The Plough,E9 6JP,London Borough of Hackney,51.548187,-0.047651,1.0,8.2,0.9658712606215808,272,0,0.0,328.7313858461523,754.6460494150218,1,0
310,The Spread Eagle,E9 6AS,London Borough of Hackney,51.54861,-0.040705,1.0,8.4,0.9698707950180422,294,0,0.0,242.23237897878067,1213.6665868767243,1,0
311,The Cat & Mutton,E8 4QJ,London Borough of Hackney,51.537473,-0.060963,1.0,8.3,0.9890047724362704,177,0,0.0,1069.165242547507,865.8551457504426,0,0
312,The Adam & Eve,E9 6AS,London Borough of Hackney,51.548897,-0.040347,2.0,8.2,0.9865254335932954,294,0,0.0,282.2561492682415,1247.8949481075997,1,0
313,The Lauriston,E9 7JN,London Borough of Hackney,51.537868,-0.045151,1.0,8.0,0.9624281224537308,86,0,0.0,1035.1134252072773,1147.5851349986488,0,0
314,The Pembury Tavern,E8 1JH,London Borough of Hackney,51.549338,-0.059227,2.0,8.1,0.9864183447794204,214,0,0.0,288.60720661270915,507.9577053564666,1,0
315,Clapton Hart,E5 8EG,London Borough of Hackney,51.557694,-0.056147,2.0,8.7,0.9894633919217786,137,0,0.0,1207.040953820704,1284.8535489931808,0,0
316,The Prince Arthur,E8 3BH,London Borough of Hackney,51.544183,-0.065576,1.0,8.2,0.963515306716331,110,0,0.0,613.8248951576701,582.9296608753516,0,0
317,The Kings Arms,E2 6EY,London Borough of Tower Hamlets,51.525615,-0.066083,2.0,9.3,0.9684739844022816,204,0,0.0,783.5290329659474,842.7095038614236,0,0
318,The People's Park Tavern,E9 7BT,London Borough of Hackney,51.541605,-0.037833,1.0,8.0,0.982944942381562,65,0,0.0,715.9851172804031,1392.0749521994287,0,0
319,The Three Compasses,E8 1NH,London Borough of Hackney,51.548327,-0.068364,1.0,8.3,0.9700081480619251,184,0,1.0,720.9285584483931,466.623294140078,0,1
320,The Palm Tree,E3 5BH,London Borough of Tower Hamlets,51.52916735,-0.0406931151062501,1.0,8.5,0.960675125130951,158,0,0.0,658.7661984185165,900.8346917955482,0,0
321,Star by Hackney Downs,E5 8NN,London Borough of Hackney,51.55308,-0.05777,2.0,8.1,0.9525480153649168,168,0,0.0,688.3145643624692,905.7725026100782,0,0
322,The Approach Tavern - Remarkable Restaurants,E2 9LY,London Borough of Tower Hamlets,51.531212,-0.051224,1.0,8.2,0.9667605633802816,147,0,2.0,520.2797527498967,375.179268382077,0,1
323,The Scolt Head,N1 4HT,London Borough of Hackney,51.543346,-0.08157,2.0,8.8,0.9773879641485276,124,0,1.0,585.5410606975383,46.70190128558395,0,1
324,The Crown,E3 5SN,London Borough of Tower Hamlets,51.532945,-0.041649,2.0,8.1,0.9672028867419392,78,0,0.0,1020.5667946064192,982.7878311820714,0,0
325,Bethnal Green Tavern,E2 0EA,London Borough of Tower Hamlets,51.52699,-0.058468,1.0,8.4,0.977767431032476,253,1,2.0,238.08628030872816,360.76578739142775,1,1
326,The Axe,N16 7HR,London Borough of Hackney,51.562816,-0.071902,1.0,9.1,0.97527179606565,119,0,0.0,1680.7573644174377,583.0552394822272,0,0
327,Lady Mildmay,N1 4PR,London Borough of Islington,51.550723,-0.084589,1.0,8.9,0.9836852520079152,144,0,0.0,481.8472043806708,769.4839349715285,1,0
328,The Dove,E8 4QJ,London Borough of Hackney,51.536524,-0.061634,2.0,7.9,0.9870259573972762,199,0,0.0,1134.716643035684,788.6908679661383,0,0
329,Hand of Glory,E8 2BS,London Borough of Hackney,51.55375,-0.06799,1.0,8.3,0.967070189733442,131,0,1.0,960.306768656194,482.3974732765211,0,1
330,The Crooked Billet,E5 9JP,London Borough of Hackney,51.562077,-0.05723,2.0,8.5,0.9869142125480154,173,0,0.0,1689.2462282603817,1296.8201418920312,0,0
331,The Railway Tavern Ale House,N16 8JT,London Borough of Islington,51.548916,-0.079184,2.0,8.4,0.9843627051565592,201,0,1.0,71.65359770623698,461.67090534483407,1,1
332,The Royal Oak,E2 7RG,London Borough of Tower Hamlets,51.52952,-0.069382,2.0,8.3,0.973458270282854,213,0,0.0,1025.6955096232448,900.8478732883816,0,0
333,The Prince George,E8 3AG,London Borough of Hackney,51.544769,-0.068151,1.0,7.9,0.9693702712140612,112,0,0.0,751.0083690263854,755.1100290288675,0,0
334,Well & Bucket,E2 7DG,London Borough of Tower Hamlets,51.525392,-0.070982,2.0,8.5,0.9776370620416716,241,0,0.0,1032.0154681348715,808.1809304355572,0,0
335,Howl at the Moon,N1 5LH,London Borough of Hackney,51.533098,-0.079843,2.0,8.4,0.9728855779303924,165,0,1.0,934.362318142685,375.8787588487165,0,1
336,The Talbot,N1 4JY,London Borough of Hackney,51.542808,-0.07915,2.0,8.2,0.9668420439995344,142,0,1.0,613.4126440428851,195.68238543232496,0,1
337,The Camel,E2 0JD,London Borough of Tower Hamlets,51.528898,-0.052176,1.0,8.0,0.969132813409382,215,1,2.0,275.2225633962348,127.5455511625897,1,1
338,The George & Vulture,N1 6BU,London Borough of Hackney,51.52908,-0.083756,2.0,8.5,0.9786078454196252,392,1,1.0,414.0366968516584,422.6603056618396,1,1
339,Shacklewell Arms,E8 2EB,London Borough of Hackney,51.552351,-0.071409,2.0,8.0,0.9741590036084274,174,0,1.0,679.2403532218112,201.83764812374355,0,1
340,The Draft House Birdcage,E2 7QB,London Borough of Tower Hamlets,51.528425,-0.070874,1.0,8.2,0.9872401350250262,238,0,0.0,1104.0832217859145,1020.4113556242244,0,0
341,Bergen House,N16 9PX,London Borough of Islington,51.55169,-0.085924,1.0,8.2,0.9596740775229892,145,0,0.0,619.47020501532,863.5981544596966,0,0
342,The Snooty Fox,N5 2NN,London Borough of Islington,51.549117,-0.09134,2.0,8.4,0.974352229076941,120,0,0.0,358.5045407647389,737.2438414331147,1,0
343,Auld Shillelagh,N16 0UD,London Borough of Hackney,51.561981,-0.07956,1.0,8.1,0.9738680013968106,91,0,0.0,1471.4089099112375,565.5423204840649,0,0
344,Duke of Wellington,E8 4EP,London Borough of Hackney,51.540191,-0.074881,1.0,7.6,0.9638109649633336,155,0,0.0,943.4601191509644,520.2540328651829,0,0
345,The White Hart,N16 8EL,London Borough of Hackney,51.559027,-0.074396,2.0,7.8,0.9604725875916656,146,0,1.0,1228.7144722153794,130.05170548836202,0,1
346,Angel & Crown,E2 0RY,London Borough of Tower Hamlets,51.529309,-0.045515,1.0,7.5,0.9854429053660808,169,0,0.0,700.1535606452101,574.3968175031172,0,0
347,Royal Inn on the Park,E9 7HJ,London Borough of Hackney,51.536709,-0.043293,2.0,7.2,0.9764846932836688,54,0,0.0,1155.436293141306,1159.123812643444,0,0
348,The Victoria,E8 3AS,London Borough of Hackney,51.54571,-0.070052,1.0,7.4,0.9854941217553254,181,0,0.0,670.3097588829369,641.0516803010574,0,0
349,The Tiger,E9 5DG,London Borough of Hackney,51.545334,-0.035466,1.0,7.2,0.9896729135141428,180,0,0.0,571.6686530358105,1506.0037619400314,0,0
350,The Alma,N1 4QU,London Borough of Islington,51.548417,-0.087735,2.0,7.8,0.9590874170643696,144,0,0.0,594.0323367045547,722.2537720220407,0,0
351,The Edinburgh Cellars,N1 4RA,London Borough of Islington,51.550582,-0.086508,1.0,7.8,0.9706087766267024,135,0,0.0,589.9675358843191,899.3631553242757,0,0
352,The Coborn Arms,E3 2DA,London Borough of Tower Hamlets,51.527033,-0.030144,1.0,7.6,0.9332045163543244,151,2,2.0,299.7544724899957,459.1601138531249,1,1
353,Farr's School of Dancing,E8 3DF,London Borough of Hackney,51.546398,-0.073939,1.0,7.4,0.9765335816552204,221,0,0.0,397.7371844191648,520.2755102608257,1,0
354,The Princess of Wales,E5 9QB,London Borough of Hackney,51.561893,-0.045795,1.0,7.6,0.9790501687812828,55,0,0.0,1654.440668655216,2044.2003982794392,0,0
355,Rusty Bike,E3 4PH,London Borough of Tower Hamlets,51.52525,-0.032513,1.0,7.6,0.9783890117564894,125,1,0.0,66.56839308630147,619.1401679565665,1,0
356,The Prince,N16 0AB,London Borough of Hackney,51.559989,-0.078209,1.0,7.7,0.9655918984984286,109,0,1.0,1298.1570273158825,336.22533868776856,0,1
357,The Three Crowns,N16 0LH,London Borough of Hackney,51.562136,-0.073783,1.0,7.5,0.9704015830520312,106,0,1.0,1574.7891996491244,478.1934115003515,0,1
358,The Shakespeare,N16 8RY,London Borough of Hackney,51.555497,-0.081863,1.0,7.4,0.9822092887905948,120,0,0.0,825.8472583146732,559.6077143684477,0,0
359,The Old Blue Last,EC2A 3ES,London Borough of Hackney,51.524328,-0.080055,2.0,7.3,0.9902781981143056,447,0,0.0,555.3467393492174,628.9049747735262,0,0
360,The Reliance,EC1V 9DR,London Borough of Hackney,51.526591,-0.081425,2.0,6.9,0.9497637062041672,468,1,1.0,423.4367068627824,481.2868765490556,1,1
361,Anchor & Hope,E5 9HG,London Borough of Hackney,51.567965,-0.052538,1.0,6.8,0.9637062041671516,69,0,0.0,2258.7341754434,1900.4635360661207,0,0
362,The Hare,E2 9BU,London Borough of Tower Hamlets,51.533415,-0.057483,1.0,6.3,0.9796182050983588,158,0,1.0,713.6003755951048,362.96691733850656,0,1
363,The Half Moon,E1 4AA,London Borough of Tower Hamlets,51.522235,-0.04534,1.0,6.5,0.9829775346292632,231,1,0.0,92.11658236330776,875.006089812026,1,0
364,The Little Driver,E3 2AN,London Borough of Tower Hamlets,51.527811,-0.022526,1.0,6.5,0.9898894191595856,206,1,2.0,177.7976782932755,74.9016984026679,1,1
365,Baxters Court,E8 1HE,London Borough of Hackney,51.5494943,-0.0549973,1.0,5.8,0.97307414736352,217,0,0.0,349.996478189458,529.4213998243773,1,0
366,Carpenters Arms,E1 5RN,London Borough of Tower Hamlets,51.523085,-0.05517,1.0,6.4,0.9740565708299384,233,1,0.0,455.4326643916295,577.0476340046869,1,0
367,Royal Sovereign,E5 8RL,London Borough of Hackney,51.562671,-0.063192,1.0,6.3,0.9455127458968688,152,0,0.0,1793.3580865684564,959.4078202810298,0,0
368,The Barley Mow,EC2A 3BX,London Borough of Hackney,51.526039,-0.080479,1.0,6.4,0.9582400186241417,460,1,0.0,486.6635396115287,550.2436364749633,1,0
369,Bricklayers Arms,EC2A 3PE,London Borough of Hackney,51.526171,-0.081131,3.0,6.3,0.9617692934466302,467,1,0.0,441.305469135373,503.8592838085961,1,0
370,The Rochester Castle,N16 0NY,London Borough of Hackney,51.561097,-0.07405,1.0,6.2,0.9534559422651612,115,0,1.0,1458.045145293195,361.2311220107593,0,1
371,Bow Bells,E3 3AA,London Borough of Tower Hamlets,51.527999,-0.019573,1.0,6.2,0.9807635898032824,201,1,2.0,376.79099114439975,280.17887519193886,1,1
372,The Blind Beggar,E1 1BU,London Borough of Tower Hamlets,51.519975,-0.056973,2.0,6.2,0.9800768245838668,262,1,0.0,184.64134634822355,941.832570208984,1,0
373,The Cow,E20 1GL,London Borough of Newham,51.5421287,-0.008406,2.0,6.2,0.9937376324060064,163,1,0.0,336.1665437181673,557.7178075584245,1,0
374,Salmon & Ball,E2 0EA,London Borough of Tower Hamlets,51.527324,-0.055883,1.0,5.1,0.9438202770341054,234,1,2.0,60.47628067255148,183.50603518547788,1,1
375,The Andover Arms,W6 0DL,London Borough of Hammersmith & Fulham,51.496998,-0.232748,1.0,8.6,0.9542847165638458,74,1,0.0,369.42145770018186,653.6764614174316,1,0
376,The Chancellors,W6 9RL,London Borough of Hammersmith & Fulham,51.488556,-0.226965,1.0,8.2,0.9235781631940404,156,1,0.0,508.0141005917465,698.9930334278058,0,0
377,The Black Lion,W6 9TJ,London Borough of Hammersmith & Fulham,51.490238,-0.241788,1.0,8.2,0.9509579792806424,38,0,0.0,604.6962658184842,729.6296530330283,0,0
378,The White Horse,SW6 4UL,London Borough of Hammersmith & Fulham,51.474384,-0.200304,2.0,8.8,0.9849237574205564,63,1,0.0,132.9097933794337,568.0482561126399,1,0
379,The Jameson,W14 0HR,London Borough of Hammersmith & Fulham,51.497232,-0.216306,1.0,7.7,0.9312629495984168,137,1,0.0,487.25568098159647,616.4159076560363,1,0
380,The Cross Keys,W6 9BG,London Borough of Hammersmith & Fulham,51.492039,-0.24262,1.0,7.8,0.9327598649749738,58,1,0.0,405.9334498143385,937.8488994015604,1,0
381,The Fulham Mitre,SW6 7DU,London Borough of Hammersmith & Fulham,51.479955,-0.202695,1.0,8.1,0.961208241182633,161,0,1.0,542.7983939748324,196.5923824621036,0,1
382,The Eagle,W12 9AZ,London Borough of Hammersmith & Fulham,51.50069,-0.239396,1.0,7.8,0.9769852170876498,75,0,0.0,769.0545177249153,925.2894850585895,0,0
383,The Captain Cook,SW6 7QY,London Borough of Hammersmith & Fulham,51.481087,-0.209699,1.0,7.8,0.9682155744383656,116,0,0.0,870.0382920365271,697.6747892702435,0,0
384,Elephant & Castle,W8 4LT,Royal Borough of Kensington and Chelsea,51.503067,-0.193444,1.0,8.2,0.9594063554883016,109,1,0.0,311.87525474196445,705.3412117407026,1,0
385,The Kings Head,SW5 0QT,Royal Borough of Kensington and Chelsea,51.493307,-0.192678,1.0,8.1,0.9623326737283204,204,1,1.0,216.02692328570436,387.09563154494265,1,1
386,The Half Moon,SW15 1EU,London Borough of Wandsworth,51.467285,-0.21998,1.0,8.4,0.9789849842858804,79,0,0.0,788.8539246948923,584.3288049436841,0,0
387,The Rutland,W6 9DJ,London Borough of Hammersmith & Fulham,51.489811,-0.231332,1.0,7.4,0.98145966709347,145,0,0.0,569.5663041510445,728.5087445622871,0,0
388,The Builder's Arms,W8 5BJ,Royal Borough of Kensington and Chelsea,51.499354,-0.18837,2.0,8.2,0.9669374927249448,140,1,0.0,296.8640281736483,692.1436870755322,1,0
389,The Defectors Weld,W12 8AA,London Borough of Hammersmith & Fulham,51.505349,-0.224392,2.0,7.7,0.9845303224304504,285,3,2.0,150.01221875076405,351.2553145220325,1,1
390,Mitre,W11 3QY,Royal Borough of Kensington and Chelsea,51.507812,-0.204213,1.0,7.9,0.969381911302526,60,1,2.0,112.43352650350688,116.97653285460396,1,1
391,The Windsor Castle,W8 7AR,Royal Borough of Kensington and Chelsea,51.506288,-0.198635,3.0,7.9,0.9686043533930858,85,1,2.0,345.37719926909733,414.1363789531903,1,1
392,The Raven,W6 0SA,London Borough of Hammersmith & Fulham,51.495303,-0.244582,1.0,7.5,0.9640530788033989,36,1,0.0,118.60125370719364,913.873350856598,1,0
393,Hollywood Arms,SW10 9HX,Royal Borough of Kensington and Chelsea,51.486182,-0.184181,1.0,8.0,0.96468862763357,123,0,0.0,735.1330286396277,527.5636091036142,0,0
394,The Devonshire Arms,W8 6LA,Royal Borough of Kensington and Chelsea,51.496827,-0.19265,1.0,7.7,0.9829053660807822,177,1,1.0,391.8305746936626,363.2659905385592,1,1
395,The Mall Tavern,W8 4RU,Royal Borough of Kensington and Chelsea,51.50867,-0.193984,2.0,7.9,0.966432312885578,98,1,0.0,164.12559405093273,640.2376197406518,1,0
396,The Blackbird,SW5 9AN,Royal Borough of Kensington and Chelsea,51.491865,-0.192271,1.0,7.7,0.9907787219182864,207,1,1.0,119.48446969021415,294.92560270862765,1,1
397,The Duchess of Cambridge,W6 0XF,London Borough of Hammersmith & Fulham,51.498584,-0.243877,1.0,7.5,0.9743661971830986,34,1,0.0,436.2014450174861,1132.8437241966817,1,0
398,Fox & Pheasant,SW10 9UJ,Royal Borough of Kensington and Chelsea,51.481956,-0.187751,1.0,7.9,0.9492538703294146,158,1,1.0,525.7445472848524,488.3370880284663,0,1
399,The Tommy Tucker,SW6 2DR,London Borough of Hammersmith & Fulham,51.478848,-0.192838,1.0,7.8,0.9701501571411942,154,1,1.0,217.1482790827452,498.1162129534674,1,1
400,The Rose,SW6 2AF,London Borough of Hammersmith & Fulham,51.476892,-0.189539,1.0,7.8,0.962914678151554,92,0,0.0,531.9363102445009,777.0884444462973,0,0
401,The Hillgate,W8 7SR,Royal Borough of Kensington and Chelsea,51.507903,-0.197655,1.0,7.7,0.9465044814340589,97,1,2.0,156.97886235777872,395.4860334909042,1,1
402,The Champion,W2 4LW,Royal Borough of Kensington and Chelsea,51.509991,-0.192358,2.0,7.8,0.9736701198929112,157,3,0.0,292.08780113645327,766.9555365491706,1,0
403,The Atlas,SW6 1RX,London Borough of Hammersmith & Fulham,51.486058,-0.196066,1.0,7.4,0.9695751367710396,130,1,2.0,123.67373310516784,288.4236030077349,1,1
404,The Duke of Wellington,W11 2ED,Royal Borough of Kensington and Chelsea,51.515251,-0.204831,2.0,7.7,0.978931439878943,185,1,1.0,492.4348903868072,403.3047539881061,1,1
405,The Bricklayer's Arms,SW15 1DD,London Borough of Wandsworth,51.46612,-0.217116,1.0,7.7,0.9609358631125596,111,0,1.0,641.6697984629188,347.8837693878613,0,1
406,The Bull's Head,SW13 9PY,London Borough of Richmond upon Thames,51.473719,-0.251053,1.0,7.7,0.937194738680014,10,0,1.0,2382.405334266951,6.657322491573154,0,1
407,The Coach & Horses,SW13 9LW,London Borough of Richmond upon Thames,51.473549,-0.250057,1.0,7.7,0.9679012920498196,13,0,1.0,2393.04606886086,72.45594247979052,0,1
408,The Elgin,W11 1PY,Royal Borough of Kensington and Chelsea,51.516247,-0.208991,2.0,7.6,0.976133162612036,182,1,1.0,189.26557875933196,94.98361913425784,1,1
409,Duke on the Green,SW6 4XG,London Borough of Hammersmith & Fulham,51.472633,-0.199534,1.0,7.6,0.971013851705273,52,1,0.0,304.621019430837,762.8050356828677,1,0
410,Warwick Arms,W14 8PS,Royal Borough of Kensington and Chelsea,51.495253,-0.203128,1.0,7.1,0.983582819229426,142,0,2.0,459.1923127086264,204.7540150617901,1,1
411,The Dukes Head,SW15 1JN,London Borough of Wandsworth,51.467371,-0.216999,1.0,7.5,0.9744034454661856,84,0,1.0,585.3465834098948,442.16556562746746,0,1
412,The Dartmouth Castle,W6 0LS,London Borough of Hammersmith & Fulham,51.49455,-0.227271,1.0,6.7,0.9631707600977768,260,2,1.0,98.84789677150776,217.2163250344235,1,1
413,The Albion,W14 0QL,London Borough of Hammersmith & Fulham,51.49442,-0.21279,1.0,6.8,0.9091933418693982,106,2,1.0,353.7836335806407,474.94566658027327,1,1
414,The Swan,W6 0DZ,London Borough of Hammersmith & Fulham,51.49309,-0.224951,2.0,6.5,0.9774997089977884,251,2,1.0,141.09825547062326,176.1218538307939,1,1
415,The Duke of Clarence,SW5 0BE,Royal Borough of Kensington and Chelsea,51.490911,-0.182595,1.0,7.4,0.925226399720638,88,1,0.0,754.9455154307068,920.8587245846004,0,0
416,The Castle,W11 4UA,Royal Borough of Kensington and Chelsea,51.506922,-0.207043,1.0,7.1,0.9480246769875452,49,1,2.0,109.8322472970026,327.46944013154024,1,1
417,The Eight Bells,SW6 3JS,London Borough of Hammersmith & Fulham,51.468072,-0.210168,1.0,7.3,0.9410080316610406,69,1,1.0,115.6107933093904,478.11806558098925,1,1
418,The Old City Arms,W6 9DA,London Borough of Hammersmith & Fulham,51.489439,-0.228902,1.0,6.6,0.9392480502851822,179,1,0.0,529.3551298441467,661.0807172817093,0,0
419,The Goose,SW6 1NL,London Borough of Hammersmith & Fulham,51.485,-0.202476,1.0,7.0,0.9814061226865324,149,0,1.0,571.5704178587539,325.2944340211247,0,1
420,The Kings Arms,SW6 4RN,London Borough of Hammersmith & Fulham,51.469109,-0.209998,1.0,7.2,0.9631102316377604,34,1,0.0,94.87125313118172,588.4730356426361,1,0
421,The Prince Albert,W11 3HQ,Royal Borough of Kensington and Chelsea,51.509534,-0.19749,1.0,7.2,0.9723175416133164,100,1,2.0,100.61662766450236,409.03533536933816,1,1
422,The Sun Inn,SW13 9HE,London Borough of Richmond upon Thames,51.473637,-0.247075,1.0,7.2,0.9317401932254684,13,0,1.0,2369.0255557966334,277.8884808397535,0,1
423,The George & Devonshire,W4 2QE,London Borough of Hounslow,51.486394,-0.252081,1.0,7.0,0.9454592014899312,37,0,0.0,982.44696736734,757.078833943424,0,0
424,The Crown,W4 1PD,London Borough of Hounslow,51.492774,-0.256828,1.0,7.0,0.9484413921545805,71,1,3.0,325.7483078579111,34.23748022300388,1,1
425,The Lamb,W4 4PH,London Borough of Hounslow,51.491775,-0.261921,1.0,7.1,0.9695076242579443,65,1,3.0,566.1953318204082,261.0718736354792,0,1
426,The William Morris,W6 0QA,London Borough of Hammersmith & Fulham,51.493068,-0.225422,1.0,6.3,0.9900523803980912,267,2,1.0,130.38003369912005,191.2923677954333,1,1
427,The Tabard,W4 1LW,London Borough of Hounslow,51.495816,-0.254684,1.0,6.9,0.9727645210103596,53,1,3.0,86.40735394572744,403.4654885244248,1,1
428,The Sindercombe Social,W12 8QD,London Borough of Hammersmith & Fulham,51.5032,-0.224045,2.0,6.5,0.9619089745082062,290,3,2.0,287.82818769365025,492.532072307752,1,1
429,Famous Three Kings,W14 9NL,London Borough of Hammersmith & Fulham,51.490654,-0.206557,2.0,6.4,0.9805866604586196,173,1,1.0,88.37278201359803,450.5706175736742,1,1
430,The Stanhope Arms,SW7 4SS,Royal Borough of Kensington and Chelsea,51.494178,-0.18217,1.0,6.8,0.9950762425794436,134,1,0.0,638.1477932884271,1007.0942300510768,0,0
431,McGettigan's Fulham,SW6 1AA,London Borough of Hammersmith & Fulham,51.479888,-0.196053,1.0,6.7,0.9551437550925388,164,1,1.0,94.9423437897146,273.99174743395366,1,1
432,The Spencer Arms,SW15 1HJ,London Borough of Wandsworth,51.468255,-0.228088,1.0,6.8,0.9663042719124664,21,0,0.0,1335.9092506557058,1128.5495957550372,0,0
433,The Bull,W12 7GB,London Borough of Hammersmith & Fulham,51.506427,-0.219891,2.0,6.5,0.9716284483762077,271,3,0.0,201.95622679012556,650.2384189771814,1,0
434,The Salutation,W6 0QU,London Borough of Hammersmith & Fulham,51.49281,-0.233179,1.0,6.1,0.962416482365266,141,1,0.0,227.24156542508425,656.7227675825706,1,0
435,The Hansom Cab,W8 6EG,Royal Borough of Kensington and Chelsea,51.496289,-0.197188,1.0,6.5,0.901559771854266,168,0,1.0,561.7660594249538,125.28837807095782,0,1
436,The Bolton,SW5 9BQ,Royal Borough of Kensington and Chelsea,51.489676,-0.190486,1.0,6.6,0.9835548830171108,167,2,1.0,313.29667908714856,382.9335649535845,1,1
437,The Plough & Harrow,W6 0QU,London Borough of Hammersmith & Fulham,51.492787,-0.231361,1.0,6.0,0.9850331742521244,200,2,0.0,332.35748161943803,538.9995652848505,1,0
438,Prince of Teck,SW5 9RQ,Royal Borough of Kensington and Chelsea,51.492869,-0.193951,2.0,6.5,0.9584984285880572,202,1,1.0,149.92334180562418,300.0573605836409,1,1
439,Packhorse & Talbot,W4 2DT,London Borough of Hounslow,51.492547,-0.254768,1.0,6.4,0.9562937958328483,65,1,3.0,292.794204175052,153.3167857967246,1,1
440,Old Swan,W8 4DP,Royal Borough of Kensington and Chelsea,51.508947,-0.195007,1.0,6.3,0.9833104411593528,101,1,0.0,88.8831942968618,570.2691339307033,1,0
441,Duke of Cornwall,W6 9PH,London Borough of Hammersmith & Fulham,51.490441,-0.223717,1.0,5.2,0.9627517169130484,252,2,1.0,218.7245626814045,462.250792847236,1,1
442,The Pavilion,W12 0HQ,London Borough of Hammersmith & Fulham,51.518829,-0.227764,1.0,6.3,0.9598021184961004,67,0,0.0,776.0718957836519,1235.8085876854109,0,0
443,The Castle,W11 1LU,Royal Borough of Kensington and Chelsea,51.516616,-0.205744,1.0,6.3,0.9316819927831452,228,1,1.0,381.0429794285727,315.2670899175973,1,1
444,Earl of Lonsdale,W11 2QA,Royal Borough of Kensington and Chelsea,51.513457,-0.202713,1.0,6.2,0.9698149225934116,125,0,0.0,663.6570135041503,533.5152458888601,0,0
445,The Hand & Flower,SW6 2ES,London Borough of Hammersmith & Fulham,51.477637,-0.18982,1.0,6.2,0.8974880689093238,113,1,0.0,460.9357608626455,731.5690234084035,1,0
446,The Goat,W8 5NP,Royal Borough of Kensington and Chelsea,51.502137,-0.187872,1.0,6.1,0.9760121056920033,103,1,0.0,368.52687633128215,871.5560333432144,1,0
447,Gloucester Arms,SW7 4RB,Royal Borough of Kensington and Chelsea,51.498752,-0.183882,1.0,5.9,0.9603771388662554,108,1,0.0,612.4846888840087,978.313212362448,0,0
448,Aragon House,SW6 4XG,London Borough of Hammersmith & Fulham,51.472542,-0.200321,1.0,5.6,0.9391200093120708,57,1,0.0,286.2287974659657,772.7723323070827,1,0
449,Prince of Wales,W8 4EP,Royal Borough of Kensington and Chelsea,51.502326,-0.19078,1.0,5.4,0.9536561517867536,122,1,0.0,245.58555110954077,738.5250530306533,1,0
450,Oyster Rooms,SW6 1AA,London Borough of Hammersmith & Fulham,51.48028,-0.194625,1.0,5.3,0.9879455243859854,157,1,1.0,18.51341637925189,379.60375264022326,1,1
451,Greyhound,W8 5EP,Royal Borough of Kensington and Chelsea,51.500979,-0.189491,1.0,5.2,0.959248050285182,125,1,0.0,210.1549475214956,704.9252755016425,1,0
452,Small Beer,N8 8PT,London Borough of Haringey,51.580374,-0.123084,1.0,8.6,0.9498195786287976,83,0,2.0,1590.1927016126606,116.7931197033784,0,1
453,The Salisbury Hotel,N4 1JX,London Borough of Haringey,51.58205,-0.099412,1.0,8.1,0.9856058666045862,130,0,0.0,952.7915094850716,882.33071883049,0,0
454,Antwerp Arms,N17 8AS,London Borough of Haringey,51.601866,-0.074851,1.0,8.2,0.9749365615178676,108,0,0.0,1779.1730289523202,2311.0360777056394,0,0
455,The Mossy Well,N10 3SH,London Borough of Haringey,51.590872,-0.141728,1.0,8.1,0.965722267489233,50,0,0.0,1540.5964827352077,1709.779717733281,0,0
456,The Westbury,N22 6SA,London Borough of Haringey,51.593561,-0.098263,1.0,7.6,0.9820137353043884,126,1,1.0,491.3345188963179,483.9826705966457,1,1
457,The Kings Head,N8 8AA,London Borough of Haringey,51.578209,-0.124311,2.0,7.9,0.9484227680130368,80,0,2.0,1470.403420799082,90.01573047461113,0,1
458,The Maid of Muswell,N10 2DP,London Borough of Haringey,51.598682,-0.138805,1.0,7.6,0.9545128622977536,19,0,0.0,1369.5652738096728,1853.7417731442067,0,0
459,Ye Olde Cherry Tree,N14 6EN,London Borough of Enfield,51.625193,-0.124021,1.0,7.7,0.9564846932836688,14,0,0.0,839.6191454152051,1632.8853054509366,0,0
460,The Park Inn,N22 7BN,London Borough of Haringey,51.598882,-0.122629,1.0,7.0,0.932545687347224,50,0,0.0,909.0151476619094,754.6323488806273,0,0
461,The Ranelagh,N11 2EU,London Borough of Haringey,51.608727,-0.127178,1.0,7.2,0.984230008148062,53,1,0.0,282.38123214272497,1349.513270416306,1,0
462,Three Compasses,N8 7NX,London Borough of Haringey,51.58744,-0.118687,1.0,7.2,0.973786520777558,149,0,2.0,1124.45387134737,357.5994937716102,0,1
463,"Ortaky, Shisha Lounge Bar",N22 6UP,London Borough of Haringey,51.594699,-0.112428,1.0,6.7,0.9260551740193226,193,1,0.0,338.70669550107107,692.4643038886677,1,0
464,The Duke of Edinburgh,N22 6UP,London Borough of Haringey,51.594746,-0.112583,1.0,6.7,0.8782213944825981,194,1,0.0,341.4362710013922,687.5572746632124,1,0
465,Earl Haig Hall,N8 9TH,London Borough of Haringey,51.580708,-0.121688,1.0,7.1,0.5939704341752997,94,0,2.0,1671.1787473533907,219.19948580187892,0,1
466,Spouter's Corner,N22 6EJ,London Borough of Haringey,51.596748,-0.108977,1.0,6.5,0.993071819345827,229,1,0.0,47.53932878075504,515.3539358212721,1,0
467,The Famous Royal Oak,N10 3QY,London Borough of Haringey,51.588349,-0.141338,1.0,7.0,0.913886625538354,51,0,0.0,1270.9350782531608,1499.769331842841,0,0
468,The Old Ale Emporium,N4 1EU,London Borough of Haringey,51.578009,-0.099125,1.0,7.0,0.9763659643813292,139,0,0.0,875.1952696497441,929.207791660243,0,0
469,Victoria Stakes,N10 3TH,London Borough of Haringey,51.587429,-0.134285,1.0,6.7,0.944972645792108,17,0,0.0,1375.6282520746545,1082.0318106826053,0,0
470,The Tollgate,N8 0PS,London Borough of Haringey,51.589934,-0.105519,1.0,6.5,0.9634850424863228,208,1,1.0,173.6045886628148,219.4312778309652,1,1
471,The Gate,N22 7SS,London Borough of Haringey,51.59837,-0.119638,1.0,6.2,0.9653590967291352,64,0,0.0,722.0177235831892,586.4557225555357,0,0
472,The Alex,N8 8JP,London Borough of Haringey,51.582767,-0.127495,1.0,6.7,0.982162728436736,64,0,2.0,1390.4879701992138,386.70030910892285,0,1
473,The Alfred Herring,N13 5TT,London Borough of Enfield,51.619207,-0.107114,1.0,6.6,0.943552554999418,82,0,0.0,1797.5013051854498,1383.845602664027,0,0
474,The Springfield Bar & Grill,N11 2PP,London Borough of Haringey,51.605573,-0.122862,1.0,6.0,0.9442067279711326,65,1,0.0,182.9275180327814,899.0675040809708,1,0
475,Railway Tavern,N8 8DH,London Borough of Haringey,51.57761,-0.1244,1.0,6.5,0.9442369922011408,86,0,2.0,1460.788579943899,156.06742697384004,0,1
476,Maynard Arms Crouch End,N8 8SX,London Borough of Haringey,51.581745,-0.126192,2.0,6.4,0.9700291002211616,82,0,2.0,1427.843062087922,243.10822798036656,0,1
477,Kiss the Sky,N8 8TD,London Borough of Haringey,51.580741,-0.124511,1.0,6.1,0.8638971016179723,75,0,2.0,1504.2681086434766,102.3018074323978,0,1
478,The Fox,N13 4JD,London Borough of Enfield,51.620473,-0.106617,1.0,5.7,0.9174927249447096,88,0,0.0,1917.847109358349,1244.763265215871,0,0
479,Inn on the Green,N13 4XS,London Borough of Enfield,51.617262,-0.109494,1.0,5.3,0.9065207775579094,94,0,0.0,1526.5682846378377,1653.1887531960003,0,0
480,The Fountain,N15 5DE,London Borough of Haringey,51.585068,-0.079415,1.0,5.8,0.9851984635083226,212,0,0.0,373.1553122425937,661.0542453319683,1,0
481,Duck in the Pond,HA3 6AA,London Borough of Harrow,51.604381,-0.327522,1.0,7.6,0.993251076708183,51,0,0.0,1457.610311066948,1133.9767081646853,0,0
482,Kingsfield Arms,HA1 3DF,London Borough of Harrow,51.575116,-0.343222,1.0,7.5,0.9314910953323244,37,0,0.0,633.9349555248336,1670.7651855209951,0,0
483,The Castle,HA1 3EF,London Borough of Harrow,51.57208825,-0.3399507827906979,1.0,7.3,0.9656687230822956,24,0,0.0,830.3295980013207,1889.3444603280043,0,0
484,O'Neill's,HA1 2AA,London Borough of Harrow,51.580578,-0.334227,1.0,6.9,0.9633057851239668,207,1,0.0,239.18287791815237,872.8906256616862,1,0
485,The Junction,HA1 2DH,London Borough of Harrow,51.579576,-0.33254,1.0,6.0,0.9648073565359097,187,1,0.0,312.9279396974379,965.6771057738416,1,0
486,The Moon & Sixpence,HA5 4HS,London Borough of Harrow,51.608274,-0.373095,1.0,6.1,0.9798766150622744,18,0,0.0,1806.1766671889443,2997.865839324238,0,0
487,Royal Oak,HA1 1JP,London Borough of Harrow,51.581653,-0.337798,1.0,5.8,0.9816109882435108,214,1,0.0,262.8541161314729,853.8330345954398,1,0
488,Travellers Rest,HA3 8AT,London Borough of Harrow,51.582649,-0.316822,1.0,5.9,0.9670050052380398,41,2,0.0,101.34483987831732,1184.860724441887,1,0
489,The New Moon,HA3 8DN,London Borough of Harrow,51.587315,-0.303992,1.0,5.7,0.9527645210103596,45,0,0.0,1084.5929346698815,1520.2845067345067,0,0
490,Moon on the Hill,HA1 2AW,London Borough of Harrow,51.579499,-0.334146,1.0,5.0,0.9880572692352462,191,1,0.0,201.63059430916223,989.168019737072,1,0
491,The Drapers Arms,N1 1ER,London Borough of Islington,51.540551,-0.108377,2.0,8.6,0.9647724362705156,135,0,0.0,500.452524972313,757.6152922491458,0,0
492,The Queens Head,WC1X 9NB,London Borough of Camden,51.528468,-0.118296,2.0,8.4,0.9712117332091724,272,1,0.0,298.7250278684324,550.8721433568026,1,0
493,The Compton Arms,N1 2XD,London Borough of Islington,51.543642,-0.10228,1.0,8.4,0.9527249447095798,178,1,2.0,393.4276103036475,238.67847190971904,1,1
494,Hemingford Arms Islington,N1 1DF,London Borough of Islington,51.543038,-0.113094,1.0,7.9,0.9500779885927132,160,0,1.0,164.10490649911893,438.0278665981405,1,1
495,King ' S Head Theatre Pub,N1 1QN,London Borough of Islington,51.538329,-0.102583,1.0,8.1,0.977553253404726,207,0,0.0,681.906363931731,761.101267756832,0,0
496,The Harrison,WC1H 8JF,London Borough of Camden,51.527499,-0.120534,2.0,7.9,0.960994063554883,277,1,1.0,367.1125535527736,362.7483956652082,1,1
497,The Duchess of Kent,N7 8PR,London Borough of Islington,51.546214,-0.108686,1.0,7.8,0.9646164590850892,173,1,1.0,155.33290959004847,273.91512412407985,1,1
498,The Owl & Hitchhiker,N7 6LE,London Borough of Islington,51.560451,-0.123665,1.0,7.7,0.9657292515423116,164,0,0.0,940.2341787834638,508.16552669405166,0,0
499,The Fellow,N1 9AA,London Borough of Islington,51.531366,-0.122304,2.0,7.5,0.983163776044698,231,1,0.0,143.4792245360398,639.3982119197452,1,0
500,Brewhouse & Kitchen,N5 1JJ,London Borough of Islington,51.546265,-0.101691,1.0,7.8,0.9728110813642185,129,1,2.0,426.1930504692419,161.1476800932669,1,1
501,The George and Monkey,EC1R 1UU,London Borough of Islington,51.529867,-0.11036,1.0,7.6,0.9653358165522058,223,1,1.0,433.14586699601455,455.2415810386136,1,1
502,The Landseer,N19 4JU,London Borough of Islington,51.562804,-0.123057,1.0,7.4,0.9837457804679316,148,0,2.0,856.119857899702,444.3752117836362,0,1
503,The Lucas Arms,WC1X 8QY,London Borough of Camden,51.528462,-0.119581,1.0,7.4,0.9510185077406588,287,1,1.0,266.6786110160908,476.8955379129745,1,1
504,The Tollington,N7 6DN,London Borough of Islington,51.557544,-0.112785,1.0,7.4,0.98671167500873,212,0,0.0,506.5995395363846,560.5496155376449,0,0
505,The Scottish Stores,N1 9DU,London Borough of Islington,51.531003,-0.120784,1.0,7.3,0.984160167617274,255,1,0.0,32.79876348976003,642.5058929659061,1,0
506,Union Tavern,WC1X 9AA,London Borough of Islington,51.526639,-0.113362,1.0,7.4,0.9626935164707252,161,0,0.0,673.6594906574707,718.2519102704316,0,0
507,The Lamb,WC1N 3LZ,London Borough of Camden,51.52308,-0.119008,1.0,7.3,0.9666138982656268,165,1,1.0,369.0650337592619,273.87012009916015,1,1
508,The Crown & Sceptre,W1W 6SD,City of Westminster,51.519319,-0.140713,2.0,6.9,0.9694890001164008,244,2,2.0,458.7787664268379,461.4697720404784,1,1
509,The Castle,N1 9HF,London Borough of Islington,51.531977,-0.109015,2.0,6.8,0.9596042369922012,209,1,1.0,231.39804931463897,258.8686240454586,1,1
510,The Coronet,N7 6NJ,London Borough of Islington,51.555575,-0.115634,1.0,6.3,0.9847002677220348,198,1,0.0,356.9452660097356,713.7664536655351,1,0
511,McGlynns,WC1H 8ET,London Borough of Camden,51.528511,-0.123216,1.0,6.3,0.9643417529973228,245,1,1.0,235.12795102755115,319.6592154851886,1,1
512,The Rising Sun,W1T 2EL,London Borough of Camden,51.519236,-0.133161,1.0,5.6,0.9856989873123037,291,2,2.0,174.56232985875673,72.38120559925167,1,1
513,The Angel,N1 9LQ,London Borough of Islington,51.53215,-0.106436,1.0,5.4,0.986825747875684,232,1,1.0,61.4990908039177,374.7821749735797,1,1
514,The White Swan,N1 1RY,London Borough of Islington,51.545644,-0.103444,1.0,5.3,0.9850750785705972,149,1,2.0,290.27699487919875,230.57944651388064,1,1
515,The General Elliott,UB8 2UR,London Borough of Hillingdon,51.542912,-0.488453,1.0,7.6,0.9132045163543244,56,0,0.0,890.9986365574505,758.9639370061924,0,0
516,Queens Head Uxbridge,UB8 1AB,London Borough of Hillingdon,51.545944,-0.479655,1.0,7.2,0.9339564660691422,204,1,3.0,195.601070786232,287.1996082131774,1,1
517,The Malt Shovel,UB8 2JE,London Borough of Hillingdon,51.529776,-0.485626,1.0,7.0,0.9804725875916656,35,0,0.0,1987.0869440468543,2071.325716349998,0,0
518,Swan & Bottle,UB8 1LZ,London Borough of Hillingdon,51.550784,-0.484815,1.0,6.5,0.9713258060761262,90,0,3.0,680.4703768223895,326.2321385374452,0,1
519,Carpenters Arms Hayes,UB4 8JJ,London Borough of Hillingdon,51.526587,-0.437838,1.0,6.2,0.8755208939587941,57,0,1.0,3135.3600321106046,239.46903067160463,0,1
520,Locos,UB8 3PH,London Borough of Hillingdon,51.533338,-0.473759,1.0,6.0,0.9235362588755676,46,0,0.0,1523.9386380308977,1742.3125423747122,0,0
521,The Good Yarn,UB8 1JX,London Borough of Hillingdon,51.547787,-0.480747,1.0,5.9,0.990476079618205,188,1,3.0,262.43189548182204,75.95565575742773,1,1
522,Fig Tree,UB8 1AB,London Borough of Hillingdon,51.54553,-0.480363,1.0,5.8,0.9365428937259924,204,1,3.0,261.80238208670784,312.1007564118242,1,1
523,The Metropolitan,UB8 1AB,London Borough of Hillingdon,51.54553,-0.480363,1.0,5.4,0.9190338726574322,204,1,3.0,261.80238208670784,312.1007564118242,1,1
524,The Tichenham Inn,UB10 8DF,London Borough of Hillingdon,51.564438,-0.444744,1.0,5.4,0.9598184146199512,27,1,0.0,362.63088804864856,3032.1672956409843,1,0
525,The Sussex Arms,TW2 5BG,London Borough of Richmond upon Thames,51.44404,-0.345864,1.0,8.8,0.9849447095797929,41,0,0.0,3331.5677530567564,1045.7807365078909,0,0
526,Moon Under Water,TW3 3LF,London Borough of Hounslow,51.467014,-0.369367,1.0,7.4,0.9721499243394248,189,1,1.0,534.1518474621247,406.3932184831633,0,1
527,The Turks Head,TW1 1LF,London Borough of Richmond upon Thames,51.456519,-0.323052,1.0,8.3,0.9828169014084508,13,0,0.0,1646.6653765310718,1043.604573019337,0,0
528,The Admiral Nelson,TW2 7BB,London Borough of Richmond upon Thames,51.453089,-0.358166,1.0,7.5,0.9563194040274706,39,0,0.0,2092.7528849300984,1826.7591701865597,0,0
529,The London Apprentice,TW7 6BG,London Borough of Hounslow,51.471303,-0.320904,1.0,7.9,0.9676987545105344,68,0,0.0,1573.0956700462148,1550.0816968298293,0,0
530,The Royal Oak,TW7 6EP,London Borough of Hounslow,51.467222,-0.339299,1.0,6.8,0.982456058666046,42,0,0.0,1353.419437887495,1756.1305124848618,0,0
531,The Rising Sun,TW7 5AQ,London Borough of Hounslow,51.475867,-0.331885,1.0,6.8,0.9162984518682342,73,0,0.0,1528.0049610718888,2382.052997997725,0,0
532,Ailsa Tavern,TW1 1NJ,London Borough of Richmond upon Thames,51.46053,-0.323012,1.0,6.8,0.9553579327202888,16,0,0.0,1488.7753738253484,1267.1938817018272,0,0
533,The Plough Inn,UB2 4LG,London Borough of Ealing,51.494919,-0.365912,1.0,6.6,0.984588522872774,15,0,0.0,1771.0980950615256,2879.42954154526,0,0
534,The Bulstrode pub,TW3 1JG,London Borough of Hounslow,51.470823,-0.366796,1.0,5.1,0.9669910371318822,178,1,1.0,83.44318426650207,254.9893995312805,1,1
535,The Red Lion,TW7 6QJ,London Borough of Hounslow,51.473544,-0.33402,1.0,5.6,0.9211267605633804,65,0,0.0,1522.3511820075514,2168.642359736244,0,0
536,The Albany,TW1 4EZ,London Borough of Richmond upon Thames,51.449089,-0.332202,1.0,5.9,0.9515236875800256,81,0,3.0,2629.285323311134,247.6208840240428,0,1
537,Town Wharf,TW7 6RJ,London Borough of Hounslow,51.469281,-0.322399,1.0,5.7,0.9561331626120358,91,0,0.0,1553.4465882535803,1549.283688340079,0,0
538,The Swan Inn,TW7 6XA,London Borough of Hounslow,51.46893,-0.324076,1.0,5.4,0.884011174484926,63,0,0.0,1644.7622468997083,1646.4472657964925,0,0
539,The Canonbury Tavern,N1 2NS,London Borough of Islington,51.544722,-0.097591,1.0,8.0,0.9757816319404028,161,0,1.0,398.76655745076266,177.78471633976028,1,1
540,Clissold Park Tavern,N16 9DB,London Borough of Islington,51.557833200000005,-0.0907843768782772,1.0,8.8,0.9861203585147248,77,0,0.0,1027.3711232100247,818.0348658266533,0,0
541,The Woodbine,N5 2LL,London Borough of Islington,51.559551,-0.098456,1.0,8.0,0.9661925270632056,93,0,2.0,508.9602439042048,307.7808505380304,0,1
542,Bank of Friendship,N5 1EA,London Borough of Islington,51.558456,-0.098756,1.0,8.0,0.9796833895937608,111,1,1.0,473.8314617105077,412.60386312799073,1,1
543,Commercial Tavern,E1 6NU,London Borough of Tower Hamlets,51.521609,-0.075667,2.0,8.0,0.9822279129321384,287,0,2.0,641.9788270800594,487.8221399619565,0,1
544,The Brownswood,N4 2EX,London Borough of Hackney,51.563975,-0.092735,2.0,7.7,0.9883925037830288,53,0,0.0,747.3121578504422,582.6290572915732,0,0
545,Edgar Wallace,WC2R 3JE,City of Westminster,51.512708,-0.112861,1.0,7.8,0.987282039343499,89,1,2.0,178.44517563305104,136.4198241701459,1,1
546,The Crown Tavern,EC1R 0EG,London Borough of Islington,51.523174,-0.105212,2.0,7.3,0.973816785007566,158,1,0.0,312.63114738718605,606.6592085769147,1,0
547,Museum Tavern,WC1B 3BA,London Borough of Camden,51.518223,-0.125809,1.0,6.9,0.965473169596089,312,2,0.0,369.2850326038956,590.0400017557141,1,0
548,Sekforde Arms,EC1R 0HA,London Borough of Islington,51.52424,-0.10438,1.0,6.2,0.964011174484926,162,1,1.0,434.1917044641749,475.07481534066886,1,1
549,The Old Crown,WC1A 1BH,London Borough of Camden,51.516906,-0.125053,2.0,6.5,0.9870562216272843,372,3,0.0,312.4084849591828,632.5182001395191,1,0
550,Lord Raglan,EC1A 4ER,City of London Corporation,51.516534,-0.096705,3.0,5.9,0.9717099289954604,130,2,3.0,152.0088504963756,228.16256240287015,1,1
551,Golden Fleece London Ec4,EC4N 1SP,City of London Corporation,51.513263,-0.09256,1.0,6.0,0.9666860668141076,181,5,3.0,125.02451116041672,397.1505576266339,1,1
552,The Masque Haunt,EC1V 9BP,London Borough of Islington,51.525094,-0.090488,1.0,5.5,0.9818042137120242,272,1,2.0,238.8051101580182,221.71703105221667,1,1
553,The Phoenix,SW3 4EE,Royal Borough of Kensington and Chelsea,51.488749,-0.16285,1.0,8.2,0.9658060761261784,77,0,1.0,633.1713353712148,438.79683451254334,0,1
554,The Surprise,SW3 4AJ,Royal Borough of Kensington and Chelsea,51.486266,-0.162709,1.0,7.9,0.953963450122221,55,0,0.0,838.8238157554641,687.5336121248098,0,0
555,The Enterprise,SW3 2HU,Royal Borough of Kensington and Chelsea,51.495209,-0.165887,1.0,8.2,0.9828378535676872,127,0,2.0,494.5648370868164,323.06848060881936,1,1
556,The Woodman,SW11 3HX,London Borough of Wandsworth,51.473515,-0.17383,1.0,8.4,0.9633663135839832,100,0,0.0,1643.022356253887,529.7844458178375,0,0
557,The Sands End,SW6 2PR,London Borough of Hammersmith & Fulham,51.471154,-0.187251,1.0,8.9,0.968422768013037,89,0,0.0,1105.5692091238136,1276.4967031838526,0,0
558,The Prince Albert,SW11 4PF,London Borough of Wandsworth,51.47984,-0.165875,1.0,7.8,0.9763682923990222,46,0,1.0,1570.7579091519744,363.627138879373,0,1
559,The Queen's Arms,SW7 5QL,Royal Borough of Kensington and Chelsea,51.499377,-0.180939,3.0,8.1,0.9834757304155513,65,0,0.0,797.3062393477113,1180.20645391246,0,0
560,The Ship,SW18 1TB,London Borough of Wandsworth,51.463534,-0.188116,3.0,8.4,0.9683552554999418,57,0,0.0,1543.763220149665,705.4923012906818,0,0
561,The Bunch of Grapes,SW3 1LA,Royal Borough of Kensington and Chelsea,51.497592,-0.167005,1.0,7.4,0.9945803748108486,119,0,0.0,560.4994902518109,503.15185111411904,0,0
562,Leinster Arms,W2 3EU,City of Westminster,51.511416,-0.1827,1.0,8.1,0.9737329763706204,197,3,0.0,318.3760467860413,782.7909480326974,1,0
563,Coach & Horses,W1J 5LD,City of Westminster,51.509055,-0.147408,1.0,8.0,0.9674356885112328,179,1,0.0,411.9978812418274,516.5292426244606,1,0
564,The Waterside,SW6 2SU,London Borough of Hammersmith & Fulham,51.473405,-0.181951,1.0,7.6,0.9482528227214528,59,0,0.0,1180.9713686465602,927.5447816638978,0,0
565,The Antelope,SW1W 8EZ,Royal Borough of Kensington and Chelsea,51.494014,-0.155534,1.0,7.3,0.9569479688045628,95,1,0.0,163.53644323980177,511.95396813259305,1,0
566,The Sydney Arms,SW3 6NJ,Royal Borough of Kensington and Chelsea,51.488642,-0.169781,1.0,6.8,0.9468350599464556,111,0,2.0,638.1097907962385,437.17733189677887,0,1
567,The Swan,W2 3PH,City of Westminster,51.511629,-0.176984,1.0,7.7,0.98606914212548,114,2,0.0,141.94192527099327,655.29963049242,1,0
568,The White Ferry House,SW1V 4LD,City of Westminster,51.489015,-0.146668,1.0,7.3,0.9602910022116168,185,0,2.0,763.6574047150366,191.1389204283477,0,1
569,Buckingham Arms,SW1H 9EU,City of Westminster,51.499165,-0.136659,1.0,7.6,0.9808497264579212,136,1,6.0,197.72877359363665,92.75148272266696,1,1
570,The Punch Bowl,W1J 5RP,City of Westminster,51.509121,-0.149474,1.0,7.5,0.9614969153765568,167,0,0.0,534.7989875966995,637.4538466909966,0,0
571,The Mitre,W2 3QH,City of Westminster,51.512367,-0.178551,1.0,7.5,0.9429961587708068,158,2,0.0,243.1591036743204,582.2997545583812,1,0
572,Chelsea Potter,SW3 4PL,Royal Borough of Kensington and Chelsea,51.488446,-0.165872,1.0,6.5,0.9784285880572692,103,0,2.0,787.3939295458447,396.1193129098799,0,1
573,The Albert,SW1H 0NP,City of Westminster,51.497703,-0.135533,1.0,7.0,0.9988196950296824,168,1,6.0,248.9256764860708,138.66550335459775,1,1
574,The Gloucester,SW1X 9QR,Royal Borough of Kensington and Chelsea,51.499942,-0.159535,1.0,6.7,0.9931672680712372,119,1,2.0,201.4529860759683,154.52144379934924,1,1
575,Bag O'Nails,SW1W 0PP,City of Westminster,51.498007,-0.144138,1.0,6.7,0.9885834012338494,114,1,2.0,153.52312525109244,379.5542757088187,1,1
576,The Waterfront,SW18 1TS,London Borough of Wandsworth,51.464356,-0.185605,1.0,6.8,0.9544872541031312,82,0,0.0,1633.0755949881684,756.4322713480154,0,0
577,The Junction,SW11 1SA,London Borough of Wandsworth,51.463308,-0.169861,1.0,6.7,0.9751530671633104,225,0,1.0,1928.8535728313736,95.61738234397406,0,1
578,The Falcon,SW11 1RU,London Borough of Wandsworth,51.463824,-0.168084,2.0,6.6,0.9807519497148178,215,0,2.0,1868.421137342305,88.96274259841759,0,1
579,The London and South Western,SW11 1LJ,London Borough of Wandsworth,51.46402,-0.16766,1.0,6.6,0.9875916656966592,215,0,2.0,1860.545121452291,113.47835597538656,0,1
580,The Feathers,SW1H 0BH,City of Westminster,51.499229,-0.132958,1.0,6.6,0.9819974391805376,128,1,6.0,86.49439594445911,56.37820290605261,1,1
581,The Gallery,SW1V 3AS,City of Westminster,51.488724,-0.134304,1.0,6.4,0.9912932138284252,174,1,0.0,96.28753965749227,868.6258773741225,1,0
582,The Northcote,SW11 1NT,London Borough of Wandsworth,51.460623,-0.167097,1.0,6.6,0.9651425910836924,183,0,1.0,1601.597457400039,414.6780155917482,0,1
583,Shepherds Tavern Mayfair,W1J 7SS,City of Westminster,51.506238,-0.14747,1.0,6.4,0.9796298451868234,151,2,0.0,330.727100478607,739.6275318959881,1,0
584,Shakespeare,SW1W 0RP,City of Westminster,51.49635,-0.144869,2.0,6.2,0.9956116866488184,136,1,1.0,67.14551367749498,237.3252036544989,1,1
585,Two Chairmen,SW1H 9BP,City of Westminster,51.50048,-0.131648,1.0,6.4,0.9729111861250146,167,2,6.0,180.28216734583305,116.64615860149824,1,1
586,The Clarence,W1S 4LB,City of Westminster,51.507819,-0.141382,1.0,6.4,0.9871702944942382,239,1,1.0,153.26659530224202,422.4368080938771,1,1
587,Zetland Arms,SW7 3EX,Royal Borough of Kensington and Chelsea,51.493446,-0.175839,1.0,5.7,0.9727971132580608,91,2,0.0,211.9423654140136,561.3182510084836,1,0
588,Morpeth Arms,SW1P 4RW,City of Westminster,51.489307,-0.128732,1.0,6.3,0.9517820975439414,135,1,0.0,299.1226741664142,576.8848635783846,1,0
589,The White Swan,SW1V 2SA,City of Westminster,51.489887,-0.131401,1.0,6.2,0.9797252939122336,136,1,0.0,144.4390438856732,755.6997201348993,1,0
590,The Victoria,SW1W 0NR,City of Westminster,51.495591,-0.146063,1.0,6.0,0.9888650913746944,132,1,1.0,183.14343739633796,255.05611667752132,1,1
591,Hoop & Toy,SW7 2HQ,Royal Borough of Kensington and Chelsea,51.494711,-0.174247,1.0,5.6,0.977017809335351,85,1,0.0,113.58480343970466,502.4054561404266,1,0
592,Travellers Tavern,SW1W 9RB,City of Westminster,51.492968,-0.148937,1.0,5.7,0.9895122802933304,120,1,2.0,497.10588029932336,195.52015601603952,1,1
593,The Willow Walk,SW1V 1LW,City of Westminster,51.495111,-0.142417,1.0,5.8,0.9962425794436036,202,1,1.0,201.54082482519684,46.366044301178064,1,1
594,Brass Monkey,SW1V 1AU,City of Westminster,51.494376,-0.140758,1.0,5.8,0.9650401583052032,220,1,2.0,336.72071318075496,136.7490392863816,1,1
595,The Old Star,SW1H 0DB,City of Westminster,51.4999,-0.133649,1.0,5.8,0.9957956000465604,123,1,6.0,29.19082451584765,48.231572146937786,1,1
596,The Barley Mow,SW1P 2EE,City of Westminster,51.495014,-0.131673,1.0,5.7,0.985929461063904,206,0,4.0,545.2443339864299,277.63038280012006,0,1
597,Greencoat Boy,SW1P 1PJ,City of Westminster,51.496337,-0.135813,1.0,5.4,0.9832941450355024,212,1,6.0,396.8392231472458,69.17490451762276,1,1
598,The Ram,KT1 1HL,Royal Borough of Kingston upon Thames,51.407998,-0.307852,1.0,8.4,0.9747968804562914,123,0,2.0,6163.892120795689,67.03807551820846,0,1
599,The Grey Horse,KT2 5EE,Royal Borough of Kingston upon Thames,51.414203,-0.300544,1.0,8.7,0.9651286229775348,213,0,1.0,5453.498408168677,21.183684332117448,0,1
600,Woody's,KT1 1HH,Royal Borough of Kingston upon Thames,51.408361,-0.308181,1.0,8.1,0.9410382958910488,120,0,2.0,6125.5724460930005,80.45721103946586,0,1
601,The Antelope,KT6 4AW,Royal Borough of Kingston upon Thames,51.395155,-0.307821,1.0,8.9,0.9729554184611804,81,0,0.0,7587.989393923213,1065.4937903538644,0,0
602,The Foresters,KT1 4DG,London Borough of Richmond upon Thames,51.41405,-0.312708,1.0,7.6,0.9376812943778372,40,0,0.0,5534.321080242302,746.2418441282807,0,0
603,The Boaters Inn,KT2 5AU,Royal Borough of Kingston upon Thames,51.418664,-0.30581,1.0,7.6,0.9626190199045512,33,0,0.0,4970.498297227506,637.1509924947208,0,0
604,The Mute Swan,KT8 9BN,London Borough of Richmond upon Thames,51.404703,-0.3423,1.0,8.3,0.9418042137120242,8,0,0.0,7101.967524219092,544.3730650730693,0,0
605,The Lamb,KT6 5NF,Royal Borough of Kingston upon Thames,51.392002,-0.311366,1.0,8.0,0.9657432196484692,67,0,0.0,7957.105843385032,1053.810011008672,0,0
606,The Cocoanut,KT1 2RF,Royal Borough of Kingston upon Thames,51.406828,-0.298407,1.0,7.3,0.9160609940635548,108,0,0.0,6275.431658006386,619.370413494723,0,0
607,The Wych Elm,KT2 6HT,Royal Borough of Kingston upon Thames,51.417169,-0.294091,1.0,7.4,0.9329530904434874,53,0,0.0,5143.6249510535645,556.2442999291645,0,0
608,La Cloche at the Lion,TW11 9DN,London Borough of Richmond upon Thames,51.418003,-0.318373,1.0,7.3,0.9527179606565008,33,0,0.0,5176.928329769483,1324.1137699602464,0,0
609,The Adelaide,TW11 0AU,London Borough of Richmond upon Thames,51.423666,-0.334627,1.0,7.8,0.9017157490396926,32,0,1.0,4965.429732899232,127.74487148311184,0,1
610,The Cardinal,KT2 5QG,Royal Borough of Kingston upon Thames,51.426511,-0.298151,1.0,7.4,0.6736002793621232,26,0,0.0,4088.4835611180088,1394.058055807419,0,0
611,The Kingston Mill,KT1 1HN,Royal Borough of Kingston upon Thames,51.407007,-0.308175,1.0,6.7,0.8987172622511931,114,0,2.0,6275.557330792387,165.32872527415984,0,1
612,The Masons Arms,TW11 8PJ,London Borough of Richmond upon Thames,51.426705,-0.339017,1.0,7.5,0.9394133395413804,38,0,1.0,4821.61171978249,348.19407988949354,0,1
613,Druids Head,KT1 1JT,Royal Borough of Kingston upon Thames,51.409151,-0.306425,1.0,6.5,0.9754580374810848,232,0,2.0,6028.706316180791,95.78273531200443,0,1
614,Prince of Wales,KT6 6AL,Royal Borough of Kingston upon Thames,51.389519,-0.297773,1.0,7.1,0.9695774647887324,68,0,2.0,7296.140053176921,168.58513843524815,0,1
615,Willoughby Arms,KT2 6LN,Royal Borough of Kingston upon Thames,51.415426,-0.292033,1.0,6.7,0.9329461063904084,81,0,0.0,5350.695326084926,597.53714469961,0,0
616,The New Inn,TW10 7DB,London Borough of Richmond upon Thames,51.436199,-0.305113,1.0,7.2,0.9409754394133396,6,0,0.0,3023.735482184885,712.28439988,0,0
617,The Cricketers,KT1 2UL,Royal Borough of Kingston upon Thames,51.407563,-0.297781,1.0,6.4,0.8472028867419392,176,0,0.0,6194.95362265476,644.9339990848463,0,0
618,The Swan,KT1 4DB,London Borough of Richmond upon Thames,51.412624,-0.310824,1.0,6.3,0.9507950180421372,98,0,0.0,5673.35094184808,543.1273731044746,0,0
619,The Railway Pub,TW11 0BB,London Borough of Richmond upon Thames,51.424276,-0.332793,1.0,6.9,0.9168920963799324,38,0,1.0,4847.893501893543,166.4374561683648,0,1
620,Teddington Arms Teddington,TW11 8EW,London Borough of Richmond upon Thames,51.427043,-0.332043,1.0,6.9,0.9155465021534164,44,0,1.0,4549.53848663231,326.48266199758586,0,1
621,Harts Boatyard,KT6 4ES,Royal Borough of Kingston upon Thames,51.397012,-0.312004,1.0,6.5,0.9568501920614596,21,0,0.0,7407.229124354643,1302.8060912594356,0,0
622,The Berrylands,KT5 8LS,Royal Borough of Kingston upon Thames,51.398264,-0.28044,1.0,6.7,0.926397392620184,15,0,0.0,5833.050813769029,1615.4068161487676,0,0
623,Tide End Cottage,TW11 9NN,London Borough of Richmond upon Thames,51.429379,-0.32295,1.0,6.8,0.9119147945524386,22,0,0.0,4054.557001073331,982.3158673015928,0,0
624,The Queens Head,KT2 5HA,Royal Borough of Kingston upon Thames,51.418659,-0.301423,1.0,6.3,0.9544919101385172,31,0,0.0,4958.324610301868,517.7528471829382,0,0
625,The Kings Tun,KT1 1QT,Royal Borough of Kingston upon Thames,51.41143,-0.300753,2.0,6.1,0.988420439995344,271,0,1.0,5761.847543898571,292.59041180024514,0,1
626,The Spring Grove,KT1 2SF,Royal Borough of Kingston upon Thames,51.403301,-0.299619,1.0,6.2,0.9419601908974508,51,0,0.0,6666.104524993848,757.5760972129757,0,0
627,O'Neill's,KT1 1BQ,Royal Borough of Kingston upon Thames,51.409136,-0.305611,1.0,5.8,0.9255383540914912,233,0,2.0,6026.867193513501,128.4447792239067,0,1
628,Royal Oak,KT6 7AA,Royal Borough of Kingston upon Thames,51.385261,-0.294952,1.0,6.5,0.9493563031079036,30,0,4.0,7213.634652001145,44.503112860205896,0,1
629,The Surbiton Flyer,KT6 4NS,Royal Borough of Kingston upon Thames,51.392693,-0.304916,1.0,6.2,0.9544174135723432,86,0,0.0,7630.636676363104,727.7499205345578,0,0
630,The Victoria,KT6 4JT,Royal Borough of Kingston upon Thames,51.392151,-0.307162,1.0,6.2,0.9787847747642882,84,0,0.0,7797.286242089094,808.1403978673717,0,0
631,The Gazebo,KT1 1QN,Royal Borough of Kingston upon Thames,51.410669,-0.307521,1.0,5.4,0.9128529856826912,251,0,2.0,5866.006928177285,258.8271048969217,0,1
632,Bacchus,KT1 1RP,Royal Borough of Kingston upon Thames,51.409638,-0.305308,1.0,5.3,0.91570015132115,242,0,2.0,5969.959580273123,183.43021329014263,0,1
633,Waggon & Horses,KT6 4TW,Royal Borough of Kingston upon Thames,51.399021,-0.301834,1.0,5.8,0.9748667209870796,36,0,0.0,7142.157174869887,1093.7294571897392,0,0
634,The Hand & Flower,TW10 5LA,London Borough of Richmond upon Thames,51.432227,-0.306594,1.0,6.1,0.9183052031195436,18,0,0.0,3474.087807141926,845.5359470741425,0,0
635,Park Tavern,KT2 6AP,Royal Borough of Kingston upon Thames,51.419479,-0.287759,1.0,5.6,0.8973204516354324,31,0,0.0,4947.764872663592,1062.1990176423506,0,0
636,The Hogarth,TW11 8QY,London Borough of Richmond upon Thames,51.425837,-0.336795,1.0,5.9,0.9366476545221744,38,0,1.0,4824.9361809645625,168.31802635648415,0,1
637,Black Lion,KT6 5PL,Royal Borough of Kingston upon Thames,51.391936,-0.310492,1.0,5.6,0.8042813455657493,70,0,0.0,7958.971869755166,995.9033320858975,0,0
638,Coronation Hall,KT6 4LQ,Royal Borough of Kingston upon Thames,51.393786,-0.303618,1.0,5.4,0.9673053195204284,77,0,0.0,7497.59142476316,766.5762689412717,0,0
639,The Kings Arms,SE1 8TB,London Borough of Lambeth,51.504593,-0.109372,2.0,8.5,0.9798160866022582,216,2,1.0,310.6020749839653,307.0167233573926,1,1
640,The Old Red Lion,SE11 4RS,London Borough of Lambeth,51.489365,-0.105265,2.0,9.0,0.9882225584914446,146,1,0.0,132.97640979850706,550.8490045129727,1,0
641,The Black Dog,SE11 5ER,London Borough of Lambeth,51.488749,-0.120925,2.0,8.2,0.9708695146083112,190,1,1.0,357.8566653809047,149.72674182563603,1,1
642,Ship & Shovel,WC2N 5PH,City of Westminster,51.50756,-0.124782,1.0,7.7,0.9793318589221278,428,3,4.0,135.55392675840883,122.04533131992704,1,1
643,The Crown & Cushion,SE1 7HR,London Borough of Lambeth,51.499309,-0.113683,1.0,7.4,0.9779257362355954,215,2,4.0,113.12807279550856,241.2727375182237,1,1
644,Coach & Horses,W1J 6PT,City of Westminster,51.510941,-0.144064,1.0,8.0,0.9941077872191828,328,3,2.0,475.7681091919864,213.16458749258325,1,1
645,The Windmill,W1S 2AZ,City of Westminster,51.512479,-0.142397,1.0,7.9,0.9842928646257711,403,2,2.0,310.6644710269352,127.63148667057088,1,1
646,The Toucan,W1D 3BY,City of Westminster,51.515128,-0.133094,1.0,7.7,0.9703503666627866,886,1,1.0,231.51693953085652,498.72430388339166,1,1
647,The Duchy Arms,SE11 5UG,London Borough of Lambeth,51.489157,-0.114453,1.0,7.4,0.978510068676522,141,0,1.0,603.1408541424871,430.0796828008541,0,1
648,The Rose,SE1 7TL,London Borough of Lambeth,51.489698,-0.122637,1.0,7.0,0.9839669421487603,157,1,1.0,414.32879697223984,154.2380144019827,1,1
649,The Chandos,WC2N 4ER,City of Westminster,51.509578,-0.12676,2.0,6.9,0.9906274007682458,926,4,5.0,243.0290551067739,156.9096067810056,1,1
650,The Clachan,W1B 5QH,City of Westminster,51.513555,-0.140186,3.0,7.1,0.988704458153882,478,1,2.0,192.5508950130316,226.33506699397603,1,1
651,Old Coffee House,W1F 9SF,City of Westminster,51.512552,-0.137315,2.0,6.9,0.97350250261902,993,1,1.0,349.913251564944,287.06746263181594,1,1
652,The Marquis,WC2N 4HS,City of Westminster,51.509793,-0.125622,1.0,6.6,0.976203003142824,846,4,4.0,273.09734262641206,78.67470456468469,1,1
653,Argyll Arms,W1F 7TP,City of Westminster,51.515018,-0.141312,1.0,6.9,0.9904295192643464,386,1,2.0,18.892726062019197,221.51867614329785,1,1
654,The Kings Head,W1S 4RX,City of Westminster,51.508693,-0.141218,1.0,6.8,0.9721336282155744,297,1,1.0,241.96976213321832,325.03330575658504,1,1
