,fsq_id,name,address,locality,neighborhood,postcode,category,latitude,longitude,popularity,price,rating,distance_metro,distance_police,number_of_crimes
0,527c07e711d255a8e45a3856,The Aeronaut,264 Acton High St,Acton,Acton,W3 9BH,Pub,51.508508,-0.275519,0.954859962445427,2.0,7.6,691.9981564746762,39.28639842478434,145
1,4db89f1dcda10f31e61b8ac9,The Talbot Inn,1 Mill Hill Rd,Greater London,Acton,W3 8JB,Pub,51.506495,-0.273439,0.8802819854534272,1.0,6.6,550.0670177617252,249.86969860242942,162
2,55d77b39498e56569779feb2,The Sheepwalk Tavern,14 Market Pl,London,Acton,W3 6QS,Pub,51.507626,-0.271289,0.8937336048196588,1.0,,586.9798677915039,272.98136285657847,174
3,4bf462f12d629521a21d6058,Duke of York,86 Steyne Rd,Acton,Acton,W3 9NU,Night Club,51.509316,-0.27219,0.878483466203214,1.0,,635.9645688608549,210.01538151750643,156
4,4bd5ff6c6f649521f71970ec,The Belvedere,108-112 High St,London,Acton,W3 6QX,Pub,51.506873,-0.268905,0.8761071842923106,1.0,5.9,457.2700811927922,457.55714679978576,180
5,4bcdda36fb84c9b60eae223e,The Red Lion & Pineapple,281 High St,Acton,Acton,W3 9BP,Pub,51.50824,-0.276597,0.9883003061210226,1.0,5.6,646.9734276179787,118.4118411607656,142
6,4c4f432ceaa1be9a7a26a645,Mill Hill Hotel,61 Gunnersbury Lane,Acton,Acton,W3 8ED,Pub,51.505603,-0.27856,0.9175546661323916,1.0,,346.343466372952,410.62353394465265,119
7,539db859498eb12d43cf35e8,The Culpeper,40 Commercial St,London,Aldgate,E1 6LP,Pub,51.516814,-0.072909,0.9871913745626012,2.0,8.8,201.8698916556596,180.5547491918496,312
8,4bfadb48d0382d7febe2c80a,Duke of Somerset,15 Little Somerset St,Aldgate,Aldgate,E1 8AH,Arts and Entertainment,51.513626,-0.074026,0.9567050754585992,1.0,7.4,99.34221219779297,533.1279242453646,245
9,4c9ca3fc7c096dcb7229c3d1,Williams Wine & Ale House,22 Artillery Lane,London,Spitalfields,E1 7LS,Pub,51.518352,-0.078291,0.9611338126278416,1.0,8.0,297.99331587078524,133.61247979981033,329
10,4acf9957f964a520d7d420e3,The Bell,50 Middlesex St,London,Whitechapel,E1 7EX,Pub,51.515769,-0.075651,0.9769640435931246,1.0,7.2,204.30323222423948,369.0475603644146,357
11,5cdd51073d4791002e65b8bb,The Buxton,42 Osborn St,London,Spitalfields and Banglatown,E1 6TD,Pub,51.517236,-0.070382,0.9814696604712492,1.0,7.7,252.34320023651986,120.69943226784844,260
12,4b3dfea1f964a520b89725e3,The Minories,64-73 Minories,London,The City,EC3N 1JL,Pub,51.510836,-0.074717,0.9939195139338648,1.0,7.2,177.88362437755626,841.612010977729,191
13,4b47ab8cf964a520e23926e3,The Castle,44 Commercial Rd,London,Aldgate,E1 1LN,Pub,51.514881,-0.06905,0.9925007338517666,1.0,7.2,191.09254742877417,395.29976017021795,294
14,4c87ac36821e9eb0ffcd8d89,Goodmans Field,87-91 Mansell St,London,Whitechapel,E1 8AN,Pub,51.511573,-0.072804,0.989169279800206,1.0,6.9,317.49768191954615,735.5514108586775,214
15,4ae19ccbf964a520688621e3,The White Hart,89 Whitechapel High St,London,Whitechapel,E1 7RA,Pub,51.515771,-0.070889,0.9939661076968236,1.0,6.8,93.40391165753846,264.244280506019,280
16,4de90673e4cd15735404e49b,Hennessy's,36 Jewry St,London,The City,EC3N 2ET,Pub,51.513347,-0.076577,0.7964947512126027,1.0,6.1,106.4152394317856,534.3424881602418,255
17,4b5f3343f964a520d8ac29e3,Still & Star,Little Somerset St 1,London,Aldgate,E1 8AH,Pub,51.513682,-0.073992,0.8600346657596414,1.0,6.0,99.57903153802933,526.4716789562425,245
18,4b6c61e3f964a52071352ce3,The Three Lords,27 Minories,London,The City,EC3N 1DE,Pub,51.512432,-0.075303,0.9145516981096912,1.0,6.1,167.7462677976827,665.9096738122937,225
19,4bc35a8f2a89ef3bb7e4f488,The White Swan,21 Alie St,London,Whitechapel,E1 8DA,Pub,51.513533,-0.071336,0.9586480353739848,1.0,6.3,181.3126385422378,510.9488906153847,247
20,4bb0ed77f964a520f96a3ce3,White Horse,31 Houndsditch,London,The City,EC3A 7DB,Pub,51.514994,-0.078413,0.432648715642924,1.0,6.0,240.9896800608763,314.72478207104774,383
21,4b7d83dff964a520b0c32fe3,Duke of Wellington,12 Toynbee St,London,,E1 7NE,Pub,51.51787,-0.074647,0.9451498222447944,1.0,6.3,362.63788939749173,228.1419698334876,344
22,4bfd4dc88992a5930ee5abb0,Kings Stores Whitechapel,14 Widegate St,London,Aldgate,E1 7HP,Pub,51.517993,-0.077869,0.9670395720828808,2.0,6.2,319.4916379468031,146.68587556097435,332
23,4ad85419f964a520091121e3,Old Tea Warehouse London Ec3,6 Creechurch Lane,London,The City,EC3A 5AY,Pub,51.51356,-0.079011,0.9346196318160852,1.0,5.8,255.474565238824,457.81233584500063,402
24,4c7fbe28fb74236a7af2fab9,The Cambridge Express,Kings Cross Station,London,,,Pub,51.513274,-0.076987,0.1060753607522097,1.0,,134.18288501775208,529.3718579296022,276
25,4b5f4402f964a520e3b029e3,East India Arms,67 Fenchurch St,London,The City,EC3M 4BR,Pub,51.512306,-0.079225,0.9042451577431844,1.0,5.9,314.39384447468643,594.0556504243222,265
26,504a2397e4b0a5cade49ae45,The Ship,3 Hart St,London,The City,EC3R 7NB,Pub,51.510809,-0.080045,0.918789400850802,1.0,6.1,244.99214212600708,757.3630480647124,224
27,4bc498a6920eb7139df11e2c,The Peacock,41 Minories,London,The City,EC3N 1DT,Pub,51.511842,-0.075204,0.8463803635245386,1.0,,233.5699333113025,726.6623394291952,229
28,4b6993d6f964a52014a82be3,Princess of Prussia,15 Prescot St,London,Whitechapel,E1 8AZ,Pub,51.511565,-0.070611,0.9234487771466912,1.0,5.9,405.66992751466324,731.6907524422096,220
29,4c28d4e13492a59315f6b728,The Windsor,2 New London St,London,The City,EC3R 7NA,Pub,51.511314,-0.079646,0.9332567642495376,1.0,5.8,250.62088543880446,701.9309155371341,256
30,4bd5e38d7b1876b09c908b86,The Zeppelin Shelter,Leman St,Poplar,,E 1 8,Pub,51.513931,-0.07091,0.3144682952739946,1.0,,147.2993293889774,467.7984171285031,265
31,4db2ac704159ca03c9068626,The Fen,Fenchurch St,London,The City,EC3M 4AJ,Pub,51.511554,-0.079134,0.6696036268585087,1.0,,243.3461355666933,677.882147468052,246
32,4ae8c18df964a52002b221e3,Dirty Dicks,202 Bishopsgate,Bishopsgate,The City,EC2M 4NR,Beer Bar,51.518022,-0.079591,0.9878460169321734,1.0,5.8,202.09518147165605,40.356287015547885,312
33,4b3caee6f964a520278625e3,The Magpie,12 New St,London,The City,EC2M 4TP,Pub,51.517111,-0.079413,0.94037163185336,1.0,5.5,219.83158439506386,74.35953639102189,325
34,4da5e8be4df024212d52623e,The Underwriter,15 St. Mary Axe,London,The City,EC3A 8AH,Pub,51.514599,-0.081125,0.585487906588824,1.0,,354.2549676259108,343.18405105507617,387
35,504b5dafe4b0c450c251b36c,The British Pub,,,,,Pub,51.510511,-0.074732,0.8771811705285131,1.0,,158.7656829785921,873.70814087839,198
36,4ad10ea1f964a52055dc20e3,Stone Horse Paper Cow,128-148 Bishopsgate,London,The City,EC2M 4HX,Arts and Entertainment,51.516439,-0.081104,0.5127713504270318,1.0,,166.33308749973804,148.2428109731569,311
37,4cf8f595466b6ea8b166648b,Scarborough Arms,35 St Mark St,Poplar,Whitechapel,E1 8DJ,Pub,51.512682,-0.07103,0.5091323775399424,1.0,,278.20141216278,606.0415211440719,239
38,4ba628d5f964a520083839e3,The Bar Locks,21 White Church Lane,London,Whitechapel,E1 7QR,Pub,51.515579,-0.069175,0.8756202794693903,1.0,,186.75144502695136,321.76206981549404,290
39,51aa404f498e6d7f20f364f6,Black Horse,40 Leman St,London,Aldgate,E1 8EU,Pub,51.513721,-0.070763,0.9061811285941264,1.0,5.0,172.76865572680097,491.8691081452657,238
40,5473c010498e00c506b4c313,Temple Brew House,46 Essex St,London,Temple,WC2R 3JF,Arts and Entertainment,51.512973,-0.112974,0.9140694526630664,1.0,8.6,206.0417196256311,132.83920717010247,91
41,4ac518c3f964a5203ca420e3,The Porterhouse,21-22 Maiden Lane,London,Covent Garden,WC2E 7NA,Arts and Entertainment,51.510321,-0.123561,0.9874709371403544,2.0,8.3,310.68594252883594,96.15998765258763,625
42,4ad20d0cf964a52010df20e3,The Ship Tavern,12 Gate St,London,Holborn,WC2A 3HP,Pub,51.5172349,-0.1192033,0.9825180201378244,1.0,8.4,94.21348200481734,406.2920998569631,218
43,4ac518c3f964a52041a420e3,Seven Stars,53 Carey St,Holborn,Holborn,WC2A 2JB,Pub,51.51507,-0.113256,0.9796152287054856,1.0,8.2,393.7876367632726,188.20653803931896,119
44,4ad4dc51f964a5204bfc20e3,The Wellington,351 Strand,London,Strand,WC2R 0HS,Pub,51.511424,-0.119594,0.9957529785062972,2.0,7.4,372.3125095828508,378.4368859820172,343
45,4b634d25f964a520b0702ae3,Edgar Wallace,40 Essex St,London,Strand,WC2R 3JE,Pub,51.512708,-0.112861,0.9888105078254223,1.0,7.8,178.44517563305104,136.4198241701459,89
46,4addfc9ef964a520156721e3,The Savoy Tup,2 Savoy St,London,Covent Garden,WC2R 0BA,Arts and Entertainment,51.510945,-0.119428,0.9736558864230436,1.0,7.3,410.65373022774963,376.5512976455948,332
47,4b0c2752f964a520f83723e3,The White Lion,24 James St,London,Covent Garden,WC2E 8NS,Pub,51.512794,-0.123889,0.9882094482832527,1.0,7.4,41.309758798854666,328.488953240255,643
48,4afb51dff964a520e41c22e3,The Nags Head,10 James St,London,Covent Garden,WC2E 8BT,Pub,51.512965,-0.123693,0.9944530125197442,1.0,7.2,41.926504020486455,348.9192554557115,628
49,4ad84d83f964a520fe1021e3,Nell Gwynne Tavern,2 Bull Inn Ct,London,Covent Garden,WC2R 0NP,Pub,51.510244,-0.122875,0.9405836334748232,1.0,7.2,329.79498017657517,128.54083402122887,565
50,4b8e9757f964a520a22a33e3,George IV,28 Portugal St,City of Westminster,Holborn,WC2A 2HE,Pub,51.514682,-0.116972,0.9737071395622982,1.0,7.0,366.3172407389223,203.0559641542353,224
51,508c12fae4b0772b58a73128,Philomena's,40 Great Queen St,London,Covent Garden,WC2B 5AA,Pub,51.515051,-0.121876,0.9804259601809702,,7.1,246.6520232755021,528.2150895845865,276
52,4b84239ef964a5202a2331e3,The George,213 Strand,London,,WC2R 1AP,Pub,51.513187,-0.113027,0.9740286365267146,2.0,7.2,229.15426368167266,118.63235778809454,101
53,566af633498eadbfb1b6ec53,Cheshire Cheese,5 Little Essex St,London,Covent Garden,WC2R 3LD,Pub,51.512588,-0.113117,0.9604372358716062,1.0,7.1,162.28217284526235,114.81354372005798,92
54,4ac518bef964a5201aa320e3,Coach & Horses,42 Wellington St,London,Covent Garden,WC2E 7BD,Beer Garden,51.512552,-0.120922,0.9414479477777103,1.0,6.7,239.00847043771367,403.7941848497377,281
55,4ac518bcf964a52069a220e3,The Coal Hole,91-92 Strand,London,Strand,WC2R 0DW,Pub,51.51031,-0.121462,0.9918926852451532,1.0,6.8,350.78216983898227,221.43858252295794,402
56,4ac518bcf964a52097a220e3,The Cross Keys,31 Endell St,London,Covent Garden,WC2H 9EB,Pub,51.514539,-0.124751,0.9759436401843248,1.0,7.0,165.61292068402022,407.93139846651593,615
57,4afd6abff964a520b62722e3,Shakespeares Head,64-68 Kingsway,Holborn,Holborn,WC2B 6BG,Pub,51.516833,-0.119602,0.9971554507713596,1.0,7.0,72.46809796848733,456.8796120378984,225
58,4aeb7215f964a52025c221e3,Lyceum Tavern,354 Strand,London,Charing Cross,WC2R 0HS,Pub,51.511308,-0.119756,0.9897074377623812,1.0,6.4,369.3289542341408,374.6858347584949,350
59,4b674815f964a520a3452be3,Freemasons Arms,81-82 Long Acre,London,Covent Garden,WC2E 9NG,Night Club,51.51437,-0.122565,0.9648030714608542,1.0,6.6,185.73123146913122,499.5807183761807,345
60,4b50c706f964a520063227e3,Ye Olde White Horse,2 St Clements Lane,Greater London,Holborn,WC2A 2HA,Pub,51.514673,-0.11716,0.9444369376715231,1.0,6.4,358.4094195946989,213.11858102911896,225
61,4b6099c3f964a52094ef29e3,Marquess of Anglesey,39 Bow St,London,Covent Garden,WC2E 7AU,Pub,51.512813,-0.12113,0.977369409330867,1.0,6.2,219.3097001278904,418.91474253315204,308
62,4fac0383e4b05cb200c3fda4,The White Swan,14 New Row,London,Covent Garden,WC2N 4LF,Pub,51.511043,-0.125503,0.9645398167001366,1.0,6.7,212.34531779630396,166.42353472037763,992
63,4b3a03cff964a520456025e3,The Hercules Pillars,18 Great Queen St,Holborn,Covent Garden,WC2B 5DG,Night Club,51.515856,-0.120837,0.9529635962930002,1.0,6.3,140.84571775246027,498.7226732730252,242
64,4b3e86b0f964a520759e25e3,Nell of Old Drury,29 Catherine St,London,Covent Garden,WC2B 5JS,Pub,51.512519,-0.120485,0.8890322941371068,1.0,5.7,269.25207543165277,420.2486313817503,273
65,4ad8b72ef964a520ee1321e3,The Sun Tavern,66 Long Acre,London,Covent Garden,WC2E 9JD,Pub,51.513933,-0.122647,0.9180252631382764,1.0,6.1,147.00449894107464,466.1054517547705,427
66,4b3a6128f964a520fb6525e3,The Devereux,20 Devereaux Ct,London,,WC2R 3JJ,Pub,51.51314,-0.11285,0.9452639769640436,1.0,6.4,225.74142996450826,131.94907615396798,96
67,4ad8c1c7f964a520651421e3,Crown & Anchor,22 Neal St,London,Covent Garden,WC2H 9PS,Beer Bar,51.514034,-0.12515,0.9896491955586824,1.0,6.3,122.31642921146313,346.414481650694,724
68,4bb22b27f964a5209cbf3ce3,Punch & Judy,Covent Garden,London,Strand,WC2E 8RF,Pub,51.511973,-0.122923,0.9918740477399696,2.0,5.9,154.40470508460695,277.01117460275873,620
69,5bef0cf6780eee002ce87166,Bow Street Tavern,37 Bow St,London,,WC2E 7AU,Pub,51.512865,-0.121191,0.9689196304182722,1.0,,214.40646413163557,421.4228065478627,314
70,4ad0fbbdf964a520b5db20e3,Maple Leaf,41 Maiden Lane,London,Covent Garden,WC2E 7LJ,Pub,51.511006,-0.122778,0.9794405020943896,2.0,5.9,252.67658414526937,189.279826099655,605
71,4b38e0aaf964a520835125e3,The Sun,21 Drury Lane,London,Strand,WC2B 5RH,Pub,51.515204,-0.123248,0.9202035215566045,1.0,6.0,246.53952746131992,530.3906207424004,349
72,4b8d5733f964a520b0f532e3,Courage & Co,Covent Garden,London,,WC2 E 7,Pub,51.511597,-0.122877,0.5342044813881214,1.0,,191.01144269538847,240.61474387904536,629
73,4b2e9f75f964a520c7e324e3,Prince of Wales,150 Drury Lane,London,Covent Garden,WC2B 5TD,Pub,51.514679,-0.121736,0.9787066503277873,1.0,5.3,249.7224787099721,507.6744191504431,292
74,51ba253f498e875047c204cc,Maple Tree,52-54 Maple Rd,London,Anerley,SE20 8HE,Pub,51.411429,-0.058701,0.6166824308898011,1.0,,6896.966807038596,1924.1266533948792,110
75,5363e078498edd00c571a622,The Three Johns,73 White Lion St,London,Islington,N1 9PF,Beer Bar,51.532948,-0.109065,0.9823549419674682,1.0,9.0,231.25356568300674,174.88510707369488,216
76,4ac518c5f964a520e2a420e3,Charles Lamb Pub,16 Elia St,London,Islington,N1 8DE,Pub,51.531985,-0.101773,0.9531266744633564,2.0,8.3,284.39391530664574,676.0100555155807,225
77,4cb5ee61f6616dcbfe42db08,The Harlequin,27 Arlington Way,Islington,The City,EC1R 1UY,Pub,51.529835,-0.106196,0.8852954743478038,1.0,7.4,300.98385670468525,565.7047293856066,188
78,5b5218ee835c9a00390ed6f2,The George and Monkey,,London,,EC1R 1UU,Pub,51.529867,-0.11036,0.9665247110021852,1.0,7.7,433.14586699601455,455.24158103861356,223
79,4ac518c5f964a520c4a420e3,Camden Head,2 Camden Walk,Islington,Islington,N1 8DY,Pub,51.535608,-0.102957,0.9755918572739852,2.0,7.5,394.3847164830409,588.1915925325616,234
80,4e31db1fa809189f7a22b81a,The Alma,78 Chapel Market,Islington,Islington,N1 9EX,Pub,51.533359,-0.109548,0.969140950792327,1.0,7.2,275.803454435865,120.99314156509975,221
81,4ada41e3f964a5209a2021e3,Shakespeares Head,1 Arlington Way,London,Clerkenwell,EC1R 1XA,Pub,51.529373,-0.106844,0.8955274646935761,1.0,6.9,358.53424588220463,584.4756091354097,193
82,4ac518e8f964a52098ab20e3,Old Red Lion Theatre,418 St John St,Islington,Clerkenwell,EC1V 4NJ,Music Venue,51.531414,-0.105968,0.9747927742392404,1.0,6.4,124.70304421192982,448.71803946568946,216
83,4b6de492f964a52077992ce3,The Castle,54 Pentonville Rd,Islington,Islington,N1 9HF,Pub,51.531977,-0.109015,0.9586293978688012,2.0,6.7,231.39804931463897,258.8686240454586,209
84,52f51ceb498eafff7e3061b7,The Joker of Penton Street,58 Penton St,London,Islington,N1 9PZ,Pub,51.533503,-0.111109,0.240256079321222,1.0,6.8,383.4956259018754,48.92215297550494,225
85,4b4ee026f964a520a9f626e3,The Angel,3-5 Islington High St,Islington,Islington,N1 9LQ,Pub,51.53215,-0.106436,0.987911248200316,1.0,5.4,61.4990908039177,374.7821749735797,232
86,54d927e3498eb8302660c1a1,The Brew House,,,,,Pub,51.531612,-0.104016,0.8108572786446806,1.0,,159.61730480625158,549.7201208416673,208
87,4bc2232d461576b050e97c32,The York,82 Islington High St,London,Islington,N1 8EQ,Pub,51.533785,-0.104983,0.9860288601767768,2.0,5.6,150.29991633061556,418.4132983253658,240
88,4dd97656d4c05d50971b5fd4,Duke of York,Islington High St,Islington,,,Pub,51.533673,-0.105051,0.8559949865111056,1.0,,136.99021193600797,414.42001221511157,237
89,51783718e4b01ba111d476f6,Jury's Inn Pub,,,,,Pub,51.53101,-0.110062,0.0785454359079493,1.0,,340.4250882683443,332.56919126365267,230
90,4c5dbb137735c9b67cf38f72,Lord Wolseley,55 White Lion St,Islington,Islington,N1 9PP,Pub,51.532746,-0.111112,0.2765293237847182,1.0,,368.91065563641246,132.89704447193776,226
91,4bd2f798046076b086d97471,Prince of Wales,Vincent Terrace,Islington,,N 1 8,Pub,51.532585,-0.100492,0.1486014882047889,1.0,,366.51953956423364,744.1196960452196,239
92,55db3cd1498e500ec06650ee,Simmons Bar,68 Amwell St,London,,EC1R 1UU,Pub,51.5305712,-0.1107497,0.836663234259462,1.0,,406.3761025658963,375.08475823208573,228
93,608c380133f13821129d809e,Day & Night,,London,,N1 9PZ,Pub,51.533432,-0.111182,0.9302468071623932,1.0,,386.2177608274545,57.49554652601838,225
94,4b9bc2e7f964a5202c2236e3,The Steam Passage Tavern,44-46 Upper St,London,,N1 0PN,Pub,51.53515,-0.104702,0.9576485991585166,1.0,5.2,300.89414679104544,457.71006887196876,244
95,4bc8cee792b376b0673f523a,The Charlotte Despard,17-19 Archway Rd,Islington,Upper Holloway,N19 3TX,Pub,51.568241,-0.136524,0.9610988673056224,1.0,7.7,343.2652378376597,1309.0542655805052,129
96,4df25a25d1649c8a28dec4a5,Oak & Pastor,86 Junction Rd,Junction,Archway,N19 5QZ,Pub,51.562509,-0.136529,0.9536345464796082,1.0,7.4,340.28242290185693,677.8773058633242,227
97,4b294b15f964a5206f9c24e3,The Mother Redcap,665 Holloway Rd,London,Archway,N19 5SE,Pub,51.565005,-0.132809,0.9429529263212826,1.0,6.1,139.18848023594938,1019.4711522709202,153
98,4b5b6d7bf964a52041fd28e3,Dusk Till Dawn,"1 Archway Close, Archway",London,Archway,N19 3TD,Arts and Entertainment,51.566014,-0.134396,0.2161274991729607,1.0,,76.51012947471204,1090.982635773604,147
99,4ac518c5f964a520a3a420e3,Archway Tavern,"Archway Tavern, Archway Close, Archway Rd",London,Upper Holloway,N19 3TD,Pub,51.565954,-0.134524,0.9648822808578844,1.0,,67.71627572302414,1082.2939590308229,146
100,4e2f2a62c65b80dfd83e3d7e,Phelan's Pub,,,,,Pub,51.565108,-0.13293,0.4925729541843529,1.0,,128.20939753364917,1026.9453256302863,151
101,4adba164f964a520892921e3,Whittington & Cat,89 Highgate Hill,London,Upper Holloway,N19 5NE,Pub,51.567333,-0.138635,0.9094333732486568,1.0,,347.2912667089749,1201.5488738094168,184
102,4c8b9cc13dc2a1cd8cb0b732,Drum & Monkey,Junction Rd,London,Upper Holloway,N19 5QZ,Pub,51.562569,-0.136401,0.7918516827337493,1.0,,330.9026233571025,686.1753501164017,229
103,4f64ef0fe4b0777dfcdc2052,The Magnet,23 Archway Rd,London,Archway,N19 3TU,Pub,51.568763,-0.13694,0.0311688977313496,1.0,,407.8072432760113,1364.3493703182712,91
104,60cd1824dbc9365fece3455d,Brendan the Navigator,90 Highgate Hill,London,,N19 5NQ,Pub,51.5685,-0.14017,0.9829629905740818,1.0,,512.6101568717313,1336.668809011055,133
105,4ad20d96f964a52011df20e3,The Bedford,77 Bedford Hill,Balham,Balham,SW12 9HD,Pub,51.442618,-0.149289,0.9827393405118792,2.0,7.9,269.46575974368386,1950.3416323099727,94
106,51f1745d498e766a81a58b41,Hagen & Hyde,157 Balham High Rd,London,Balham,SW12 9AU,Pub,51.443835,-0.15221,0.9765586778553824,1.0,7.3,67.22330393751939,2189.7577704331925,114
107,4afa7bebf964a520f41722e3,The Devonshire,39 Balham High Rd,Balham,Balham,SW12 9AN,Pub,51.446854,-0.149008,0.97800075481896,1.0,7.1,467.4340510682717,2131.1073849690497,92
108,4c12391577cea593a299cc60,The Grove Pub,39 Oldridge Rd,London,Balham,SW12 8PN,Pub,51.448384,-0.151007,0.9597662856849982,1.0,7.3,558.2760844957143,2066.800509066134,73
109,4bae403cf964a52090983be3,The Regent,21 Chestnut Grove,Wandsworth,Balham,SE20 8PQ,Pub,51.4440292,-0.1537279,0.9686330787760752,2.0,6.2,84.933400011263,2281.4648448966273,115
110,509fdd64e4b01718b36b7a39,Prince of Wales,270 Cavendish Rd,Balham,Balham,SW12 0BT,Arts and Entertainment,51.446575,-0.145701,0.8857474338485051,1.0,,611.1738366563839,2050.8475837241895,88
111,4ac518bef964a52010a320e3,Founder's Arms,52 Hopton St,South Bank,Southwark,SE1 9JH,Pub,51.508517,-0.101674,0.9932439043709608,2.0,8.2,368.7707764335281,424.6158490251273,74
112,59d77aa1029a552c5f80b296,Mc & Sons,160 Union St,London,Southwark,SE1 0LH,Pub,51.503837,-0.099943,0.947891865194925,,7.9,334.79183839741995,610.2779298484829,117
113,4ac518bef964a520faa220e3,Anchor Bankside,34 Park St,South Bank,Southwark,SE1 9EF,Arts and Entertainment,51.507187,-0.092961,0.9933324325205828,1.0,7.5,500.22177520624865,951.3083092902682,174
114,5a283f824f0e581478f1e5ee,The Charlotte,204 Union St,Southwark,,SE1 0LX,Pub,51.503853,-0.101948,0.9475237744675498,1.0,7.3,196.02142458894284,682.4898569225019,125
115,4ac518c1f964a520e2a320e3,Samuel Pepys,Stew Lane,London,The City,EC4V 3PT,Pub,51.510617,-0.096002,0.9540771872277176,1.0,6.9,257.7839927564366,644.7559666877848,126
116,4c07de0d708c2d7f0da0ca63,Doggetts Coat & Badge,1 Blackfriars Bridge,London,Waterloo,SE1 9UD,Pub,51.508486,-0.104715,0.994164131189399,2.0,6.5,330.5029422868647,353.87977737609606,87
117,4b43bb69f964a520e3e725e3,Rose & Crown,47 Colombo St,Blackfriars,Waterloo,SE1 8DP,Pub,51.505588,-0.105379,0.9430065091486852,1.0,6.3,198.74139681627864,603.278682739472,144
118,4ad89b5ff964a520c81221e3,Prince William Henry,217 Blackfriars Rd,London,Waterloo,SE1 8NL,Pub,51.505268,-0.104109,0.9552979438172406,1.0,5.7,165.43901856783665,670.6058647183982,131
119,4ffc0faf64a48317fd8ac5cc,The reUNION Public House,100 Union St,London,,SE1 0NL,Beer Garden,51.503992,-0.097743,0.8943929065655272,1.0,,407.49749427617866,579.5005110907563,178
120,4bf686f394b2a593e092adee,The Rose & Crown,65 Union St,London,Southwark,SE1 1SG,Pub,51.503844,-0.095087,0.9476752041971662,1.0,5.6,324.711855080921,558.2094058509731,196
121,4b744df5f964a520e3d32de3,The Union Jack,225 Union St,London,Southwark,SE1 0LR,Pub,51.503489,-0.10162,0.9357798165137616,1.0,5.2,222.17442349496264,636.3979301291629,131
122,4ac518bef964a520ffa220e3,Fox & Anchor,115 Charterhouse St,Clerkenwell,Clerkenwell,EC1M 6AA,Pub,51.520409,-0.100667,0.9699563416441076,1.0,7.2,207.56006718980763,399.74786618860156,129
123,4ac518c5f964a520afa420e3,The Slaughtered Lamb,34-35 Great Sutton St,Clerkenwell,Clerkenwell,EC1V 0DX,Concert Hall,51.523305,-0.101194,0.9549717874765284,3.0,7.4,360.73023251634527,702.5015165763899,180
124,4ada5f87f964a520fc2121e3,The Bishops Finger,9-10 West Smithfield,London,The City,EC1A 9JR,Pub,51.518457,-0.101946,0.9184329585641666,1.0,6.9,267.40547836796645,165.37898524189006,113
125,4ba28b8df964a520c30238e3,The Shakespeare,2 Goswell Rd,London,The City,EC1M 7AA,Pub,51.521814,-0.097155,0.9565722832341664,1.0,6.0,113.47219277806944,580.1674899225126,150
126,4b74769bf964a52023de2de3,Sutton Arms,16 Great Sutton St,Clerkenwell,Clerkenwell,EC1V 0DH,Pub,51.523344,-0.100346,0.9786204518663132,1.0,6.3,328.702572729936,718.3043372020521,164
127,4b0c4f86f964a520f13a23e3,Butchers Hook & Cleaver,61 West Smithfield,Farringdon,The City,EC1A 9DY,Pub,51.51874,-0.100491,0.9588250916732286,1.0,5.8,302.6394706869125,244.94364620928815,107
128,4cc707f30a8c95218e16bda6,The Rising Sun,38 Cloth Fair,London,The City,EC1A 7JQ,Pub,51.519147,-0.099877,0.0977513849996039,1.0,,240.8097237226982,306.9634269035388,112
129,5112b735e4b00ee93b8ae1c3,The Castle,34-35 Cowcross St,Farringdon,The City,EC1M 6DB,Pub,51.520295,-0.104307,0.9831843109481364,2.0,6.0,40.64822379909117,374.03829723568975,141
130,4af49568f964a52010f421e3,Lord Raglan,,London,The City,EC1A 4ER,Pub,51.516534,-0.096705,0.9721392594387316,3.0,6.0,152.0088504963756,230.02732193034893,130
131,4c1905d2f551ef3bd11d4768,Wood Street Bar & Restaurant,53 Fore St,London,The City,EC2Y 5EJ,Pub,51.518761,-0.092969,0.9521947992041784,1.0,5.7,310.03872430651916,186.98049895932462,129
132,5b881fa598fbfc002c368d32,The Lamb and Trotter,6 Little Britain,London,,EC1A 7BX,Pub,51.517107,-0.098372,0.5632906379152087,1.0,,209.55702270688988,305.87415582115,124
133,4c87aaf9821e9eb0ebcc8d89,The Sir John Oldcastle,29-35 Farringdon Rd,London,Clerkenwell,EC1M 3JF,Night Club,51.519845,-0.105863,0.9928525167621062,2.0,5.7,76.90172745849937,375.0199841887506,142
134,4ad9f6ddf964a520751c21e3,The Three Compasses,66 Cowcross St,London,The City,EC1M 6BP,Pub,51.520043,-0.103911,0.9429505966331349,1.0,4.8,60.93677060510826,339.96205914164386,142
135,4ae83bfef964a52047ae21e3,The Drapers Arms,44 Barnsbury St,Islington,Islington,N1 1ER,Pub,51.540551,-0.108377,0.9612759236048662,2.0,8.5,500.45252497231303,757.6152922491458,135
136,4ad870d4f964a520661121e3,Hemingford Arms Islington,158 Hemingford Rd,London,Islington,N1 1DF,Pub,51.543038,-0.113094,0.951169736419083,1.0,8.0,164.10490649911893,729.5366062557915,160
137,4c5434e8a724e21e447800f6,Tarmon Arms,,,Pentonville,,Pub,51.537954,-0.115455,0.8471072262266973,1.0,,590.0020077192438,541.3096565318891,125
138,4c544f5ba724e21eda772ef6,Prince of Wales,,,,,Pub,51.540987,-0.116541,0.8644401060474045,1.0,,263.9664021480101,871.4687764704071,168
139,4b6728c9f964a520823e2be3,The Woodman,60 Battersea High St,Wandsworth,Battersea,SW11 3HX,Pub,51.473515,-0.17383,0.964181044725353,1.0,8.4,1643.022356253887,2116.5306018986466,100
140,50955321498e4ddf6826dede,The Candlemaker,136 Battersea High St,London,Battersea,SW11 3JR,Pub,51.470545,-0.172519,0.9087927090079722,1.0,6.8,1892.6790520912598,2323.770490036869,142
141,4bb4f358c29a95219dffa735,Duke of Cambridge,228 Battersea Bridge Rd,Battersea,Battersea,SW11 3AA,Pub,51.472797,-0.166029,0.9621821722944168,1.0,7.7,1823.457893053573,2134.272489322541,115
142,4ad06911f964a520fcd720e3,The Latchmere,503 Battersea Park Rd,London,Battersea,SW11 3BW,Pub,51.47201,-0.165499,0.966408226594788,1.0,6.9,1828.2039423734034,2222.5796548958156,106
143,4bf570012c6b76b05180a18c,The Asparagus,1-13 Falcon Rd,Battersea,Battersea,SW11 2PL,Pub,51.469845,-0.171297,0.9593958652694752,1.0,5.8,2006.7420785351233,2342.7554131251563,158
144,4b76dc75f964a520ff642ee3,The Bellevue,136 Battersea High St,Wandsworth,Battersea,SW11 3JR,Pub,51.470545,-0.172519,0.1825170882625651,1.0,,1892.6790520912598,2323.770490036869,142
145,4b6c2ae4f964a5204a272ce3,The Prince Edward,73 Princes Square,Paddington,Bayswater,W2 4NY,Pub,51.512969,-0.193483,0.9608076562871294,1.0,8.3,417.20782682992007,827.0257976699,186
146,4b719a70f964a5206e502de3,Leinster Arms,17 Leinster Terrace,Bayswater,,W2 3EU,Arts and Entertainment,51.511416,-0.1827,0.97522376654661,1.0,8.3,318.3760467860413,782.7909480326974,197
147,4ae5d12df964a52041a221e3,Bayswater Arms,99 Queensway,Bayswater,Bayswater,W2 4QH,Pub,51.512656,-0.187444,0.9889805750602224,1.0,7.2,47.05900893494967,898.9328129640554,222
148,4d44995a1911a09363e9d9d8,Phoenix,51 Moscow Rd,Bayswater,Bayswater,W2 4AL,Pub,51.512323,-0.189936,0.9278076236714954,1.0,7.2,164.06071938595483,1006.003562928465,221
149,4b8ed000f964a520af3833e3,The Champion,1 Wellington Terrace,London,Bayswater,W2 4LW,Pub,51.509991,-0.192358,0.9745854319940732,2.0,7.8,292.08780113645327,766.9555365491706,157
150,4bddbc3a587b2d7f9ddb5409,Kings Head,33 Moscow Rd,Bayswater,Bayswater,W2 4AH,Pub,51.512405,-0.189336,0.9577790616948016,1.0,7.0,123.64843607814075,1021.8477277351603,210
151,4ba15675f964a520fead37e3,The Porchester,88 Bishops Bridge Rd,London,Bayswater,W2 5AA,Pub,51.516161,-0.187698,0.95145628806128,1.0,7.3,358.321119125046,750.8143485197123,218
152,4b4a47e0f964a520218226e3,Prince Alfred,112 Queensway,London,Bayswater,W2 3RR,Pub,51.513623,-0.18759,0.9588856635650752,1.0,6.5,153.7896621391701,847.2771999964532,250
153,4db5701d5da3a76f445106e0,Great British Pub,,Paddington,,,Pub,51.512587,-0.187761,0.4373989497765829,1.0,6.1,40.808279407489096,921.0956111283097,218
154,4efe10a79adffb90cb4f67f4,The Dodge Pub,,,,,Pub,51.513569,-0.186432,0.907665139944367,1.0,,167.41921142000314,782.8671751777433,245
155,4b5af814f964a520c7dc28e3,The Tabard,2 Bath Rd,London,,W4 1LW,Pub,51.495816,-0.254684,0.9709650966121676,1.0,7.0,86.40735394572744,403.4654885244248,53
156,4ac518bef964a520fba220e3,The Antelope,22-24 Eaton Terrace,London,Belgravia,SW1W 8EZ,Pub,51.494014,-0.155534,0.9576835444807358,1.0,7.3,163.53644323980177,565.2642229096809,95
157,4d274242b818a35d5ce1898a,Horse & Groom,7 Groom Pl,London,Knightsbridge,SW1X 7BA,Pub,51.499267,-0.150789,0.9422936245754144,1.0,6.6,451.11320005838786,629.2135160125484,44
158,4b506e8df964a5201b2327e3,The Gloucester,187 Sloane St,Knightsbridge,Knightsbridge,SW1X 9QR,Pub,51.499942,-0.159535,0.9934232903583526,1.0,6.9,201.4529860759683,154.52144379934924,119
159,4b23a398f964a520815724e3,The Nags Head,53 Kinnerton St,London,Belgravia,SW1X 8ED,Pub,51.501139,-0.157069,0.9305916010082892,1.0,6.7,231.88527628926627,346.5850264338296,85
160,4ad365d0f964a52026e420e3,Plumbers Arms,14 Lower Belgrave St,London,Victoria,SW1W 0LN,Pub,51.496497,-0.147527,0.9386499923120292,1.0,6.0,244.0086262934295,872.0066899942419,110
161,58e496c8084be55ed667c347,Fellowship Inn,Randlesdown Rd,London,Bellingham,SE6 3BT,Pub,51.43262,-0.020323,0.8889134800415617,1.0,,5005.951022292113,552.1226447323762,95
162,4af0bf5cf964a520d0de21e3,The Washington,50 Englands Lane,London,Belsize Park,NW3 4UE,Pub,51.545666,-0.162814,0.985008456767977,1.0,7.7,537.1676411464146,804.5624351760418,71
163,51618649e4b006e8fd68fe21,The George Belsize Park,250 Haverstock Hill,London,,NW3 2AE,Pub,51.550442,-0.16692,0.911446223808481,1.0,,157.22147266841276,992.0839436119776,74
164,5371f980498e188cd0583009,St James of Bermondsey,,London,,SE16 4QZ,Pub,51.496592,-0.065721,0.9651711621882296,2.0,7.5,229.96857742941293,969.0466876202587,130
165,4b8fecb7f964a520e96933e3,Old Justice,94 Bermondsey Wall East,London,Bermondsey,SE16 4TY,Arts and Entertainment,51.500169,-0.064367,0.8743179837946893,1.0,7.5,234.53543400590436,996.0623472437214,93
166,4bd4314a9854d13a372cff4d,The Gregorian,96 Jamaica Rd,London,Rotherhithe,SE16 4SQ,Pub,51.497528,-0.066524,0.9817049589741916,1.0,6.9,219.77528601644227,1039.4532068413462,143
167,4ec93e9de5fa232a773f0285,The Boatman,234 Jamaica Rd,London,Rotherhithe,SE16 4BD,Arts and Entertainment,51.498545,-0.059681,0.0139711398232232,1.0,,268.36027087448974,625.0781608648277,76
168,4ac518c5f964a520c6a420e3,The Camel,277 Globe Rd,London,Bethnal Green,E2 0JD,Beer Bar,51.528898,-0.052176,0.9700891338685405,1.0,8.1,275.22256339623476,127.5455511625897,215
169,4b462efbf964a5205a1926e3,The Approach Tavern - Remarkable Restaurants,47 Approach Rd,London,,E2 9LY,Pub,51.531212,-0.051224,0.9682976036827712,1.0,8.2,520.2797527498967,375.179268382077,147
170,4acfc3a3f964a520d4d520e3,The Dundee Arms,339 Cambridge Heath Rd,London,Bethnal Green,E2 9LH,Pub,51.529313,-0.056137,0.9656161326244868,1.0,7.5,249.02389418930193,102.58142485588203,220
171,5b6f348e1ffe97002cc9eccf,Bethnal Green Tavern,456 Bethnal Green Rd,London,,E2 0EA,Pub,51.52699,-0.058468,0.9780147329478476,1.0,8.3,238.08628030872816,360.76578739142775,253
172,4ad716c8f964a520a30821e3,Florist Arms,255 Globe Rd,London,Bethnal Green,E2 0JD,Beer Bar,51.528552,-0.051472,0.9502751361702724,1.0,7.7,290.16973809186896,154.0578346321624,211
173,4b7828bdf964a52000b92ee3,The Hare,505 Cambridge Heath Rd,Hackney,Bethnal Green,E2 9BU,Pub,51.533415,-0.057483,0.9781917892470914,1.0,6.2,713.6003755951048,362.96691733850656,158
174,4b648fadf964a520c8bd2ae3,The Shakespeare,460 Bethnal Green Rd,Greater London,Bethnal Green,E2 0EA,Pub,51.527071,-0.057869,0.863030644717898,1.0,,196.08335090725708,318.9951079192541,252
175,4cd5910a67c7236a56921377,Bar Valiente,423 Bethnal Green Rd,London,Bethnal Green,E2 0AN,Pub,51.527216,-0.059429,0.4922002040806817,1.0,,303.654107088474,394.0179836625786,254
176,4bb4ec9beb6dd13a068496e4,The Victory,27 Vyner St,Hackney,Bethnal Green,E2 9DQ,Pub,51.534638,-0.055547,0.9374828185499088,1.0,,830.0341585319576,494.85677710215367,152
177,4b96b7cdf964a520fedf34e3,Salmon & Ball,502 Bethnal Green Rd,London,Bethnal Green,E2 0EA,Pub,51.527324,-0.055883,0.9428690575479566,1.0,5.1,60.47628067255148,183.50603518547788,234
178,4bbf6093b083a593fb4fa3e9,The Misty Moon,456 Bethnal Green Rd,London,Bethnal Green,E2 0EA,Pub,51.527063,-0.058057,0.3820758453273444,1.0,5.1,209.11922152933164,331.3540849608704,251
179,4ac518baf964a520d5a120e3,The Blackfriar,174 Queen Victoria St,London,The City,EC4V 4EG,Pub,51.512102,-0.103706,0.9896468658705344,2.0,8.2,80.85706014217254,112.67502807063853,81
180,4ac518bff964a52024a320e3,Ye Olde Cheshire Cheese,145 Fleet St,London,Fleet Street,EC4A 2BU,Pub,51.514321,-0.10721,0.9844912659991334,2.0,8.6,267.707150816591,328.3022196359051,99
181,4ac518c3f964a5203da420e3,The Old Bell Tavern,95 Fleet St,London,Fleet Street,EC4Y 1DH,Pub,51.514031,-0.10528,0.9429203106872114,1.0,7.1,134.32246362672234,264.20202297939716,99
182,4b3cb4c9f964a5205c8625e3,Ye Olde London,42 Ludgate Hill,London,The City,EC4M 7DE,Pub,51.514015,-0.102084,0.9816001230075342,1.0,6.8,89.0774773171659,338.16052829904726,103
183,4b1311e3f964a520b19323e3,The Albion,2-3 New Bridge St,London,Fleet Street,EC4V 6AA,Pub,51.513796,-0.104507,0.9506059518872804,1.0,6.5,89.71293610750458,242.3140325632268,88
184,4b20dd29f964a520fc3424e3,The Harrow,22 Whitefriars St,Blackfriars,The City,EC4Y 8JJ,Pub,51.512934,-0.106771,0.8695095074573318,1.0,6.3,243.8768835035159,180.27782080103705,82
185,4ac518c3f964a5203fa420e3,The Cockpit,,London,The City,EC4V 5BY,Pub,51.512741,-0.101577,0.9395259550556564,1.0,6.2,199.8740895887964,276.24284464945856,101
186,4b05a395f964a52005e022e3,St Brides Tavern,1 Bridewell Pl,London,The City,EC4V 6AP,Pub,51.513085,-0.104664,0.8861784261558747,1.0,5.8,150.18842656811557,162.68052978812202,77
187,527a8d1911d2afc1ab5c8d4b,Magpie & Stump,18 Old Bailey,London,The City,EC4M 7EP,Pub,51.515671,-0.102542,0.8955204756291323,1.0,6.2,177.07467181663628,156.07875891818867,118
188,4ac518c3f964a52040a420e3,The Tipperary,66 Fleet St,London,Fleet Street,EC4Y 1HT,Pub,51.514085,-0.107628,0.9049510532520116,1.0,6.0,296.1512520276138,319.26467333158473,95
189,4b3f74fbf964a5202ca725e3,The Centre Page,29 Knightrider St,London,The City,EC4V 5BH,Pub,51.51255,-0.098672,0.9217178188527684,1.0,5.9,313.0680094440478,460.39751932717826,124
190,4ad63f34f964a520020621e3,Crown Sugar Loaf,26 Bride Lane,London,The City,EC4Y 8DT,Pub,51.513885,-0.10491,0.8525074433536327,1.0,5.6,112.19821954986485,248.4960457111636,99
191,4bd821dee914a593d77752fa,Witness Box,36 Tudor St,Blackfriars,The City,EC4Y 0BH,Pub,51.512651,-0.108225,0.8519180322522028,1.0,,309.95855235488034,238.73576710964355,86
192,4ad84c77f964a520fc1021e3,The Hoop & Grapes,80 Farringdon St,London,The City,EC4A 4BL,Pub,51.515503,-0.105025,0.8761281514856422,1.0,5.1,189.0378418039088,232.551882817098,104
193,4b2fe171f964a520e1f124e3,Princess of Wales,1a Montpelier Row,London,Blackheath,SE3 0RL,Pub,51.469343,0.010453,0.9662288406073964,1.0,8.1,3197.5420125689766,1545.5485640198203,34
194,4bc20cf2920eb7134b881b2c,The Crown,49 Tranquil Vale,Blackheath,Blackheath,SE3 0BS,Pub,51.466605,0.007321,0.9646539714193858,1.0,6.9,3094.3998976153352,1236.660729738028,43
195,4bb63f21f562ef3b70da2f97,The Railway,16 Blackheath Village,Blackheath,Blackheath,SE3 9LE,Pub,51.465651,0.008934,0.9716896296261782,1.0,6.0,3238.933484269002,1322.3128751959428,43
196,4ba4f655f964a52029c938e3,O'Neill's,52 Tranquil Vale,London,Blackheath,SE3 0BH,Pub,51.466742,0.007953,0.9197352542388676,,5.4,3129.031150991923,1282.928847768023,43
197,4b228701f964a5205c4824e3,The Royal Standard,44 Vanbrugh Park,Blackheath,Blackheath,SE3 7JQ,Pub,51.476802,0.018752,0.9778423360248996,1.0,7.1,2842.4555926986473,995.5798765844581,55
198,4be1d60ea145c928a7bc4e80,The Steamship,24 Naval Row,Poplar,Poplar,E14 9PS,Pub,51.509006,-0.005617,0.98883613439505,1.0,,1135.3306661013341,497.492125915984,130
199,4ada5bc6f964a520cd2121e3,Friend at Hand,2-4 Herbrand St,Bloomsbury,Bloomsbury,WC1N 1HX,Pub,51.522824,-0.124568,0.9572688599904016,1.0,7.8,49.27812135509068,342.0502121163863,151
200,4b1d379ef964a520260d24e3,Swan,7 Cosmo Pl,Holborn,Bloomsbury,WC1N 3AP,Pub,51.521062,-0.122892,0.9512279786227816,1.0,7.4,262.2888252335818,362.8406044331888,164
201,5081881fe4b029049227a241,ULU the Library,Univerdity College London,,,,Pub,51.522571,-0.131226,0.5442361185531704,1.0,6.9,310.7457321468302,288.481827842749,167
202,4af06e30f964a520f4db21e3,The Marquis of Cornwallis,31 Marchmont St,Bloomsbury,Bloomsbury,WC1N 1AP,Pub,51.524424,-0.125061,0.995170556469311,2.0,7.2,140.57453072171907,162.24518638796243,174
203,4aec421af964a520b5c521e3,Museum Tavern,49 Great Russell St,Bloomsbury,Bloomsbury,WC1B 3BA,Pub,51.518223,-0.125809,0.9665503375718126,1.0,6.9,369.2850326038956,590.0400017557141,312
204,4acf1a14f964a5206ad220e3,Jack Horner,234-236 Tottenham Ct Rd,Bloomsbury,Bloomsbury,W1T 7QJ,Pub,51.51874,-0.13218,0.9701333979433512,1.0,6.5,240.3887443244242,159.4626967640402,317
205,4b9ebbf5f964a52092fd36e3,London Pub,44 Woburn Pl,Bloomsbury,Bloomsbury,WC1H 0JR,Hotel Bar,51.523939,-0.127371,0.9426267699805704,1.0,6.3,223.78396058658774,267.6771412738413,149
206,4ac5e10af964a52087b220e3,Bricklayers Arms,31 Gresse St,London,Fitzrovia,W1T 1QS,Pub,51.517759,-0.13351,0.965860749880021,2.0,6.4,212.0703188820542,205.21529159667134,471
207,4ad718fbf964a520ad0821e3,Marlborough Arms,36 Torrington Pl,Bloomsbury,Bloomsbury,WC1E 7LY,Pub,51.521858,-0.133765,0.9747857851747964,2.0,6.2,146.82945886680028,134.99424610380632,162
208,5d227204dbde110025467017,The Courtyard,,London,,W C1E,Pub,51.520743,-0.130602,0.8609898379002987,1.0,,263.95172059759983,237.9997009993139,237
209,4aedb71ff964a5204ece21e3,The Plough,27 Museum St,Bloomsbury,Bloomsbury,WC1A 1LH,Pub,51.517786,-0.125891,0.9711794279217784,1.0,6.2,339.94524789135414,598.8799593974117,334
210,4ada5b5ff964a520c72121e3,The Queens Larder,1 Queen Square,London,Bloomsbury,WC1N 3AR,Pub,51.521135,-0.122481,0.9315304653319106,1.0,6.2,267.23504771145116,335.4410647514613,156
211,4aeec709f964a52040d421e3,Fitzroy Tavern,16 Charlotte St,Fitzrovia,Fitzrovia,W1T 2NA,Pub,51.518682,-0.134597,0.9636708430209532,1.0,6.0,213.66428100868157,105.91043062251032,341
212,4af4f4fdf964a520adf721e3,The Rising Sun,46 Tottenham Ct Rd,London,Bloomsbury,W1T 2EL,Pub,51.519236,-0.133161,0.98597993672567,1.0,5.6,174.56232985875673,72.38120559925167,291
213,4beebce7d355a593473b0b60,Museum Bar,Great Russell St,Camden Town,,WC1 A 2,Pub,51.518095,-0.125062,0.0851594205599638,1.0,,330.85741180389084,591.2172333930614,299
214,4b9ce814f964a520ad8136e3,Callaghans,Coram St,London,Bloomsbury,WC1N 1HT,Pub,51.523992,-0.125049,0.1015091719822384,1.0,,96.79736224193385,210.2881058378972,176
215,4ad61c70f964a520250521e3,Mortimer Arms,174 Tottenham Crt Rd,London,,,Pub,51.52231,-0.135689,0.1144412708914784,1.0,,209.72676244604975,216.46677381662474,172
216,4ac5e142f964a52088b220e3,Fitzrovia,18 Goodge St,London,Fitzrovia,W1T 2QF,Pub,51.519915,-0.134855,0.9118935239328864,1.0,5.1,82.15625909745873,67.10009739089635,291
217,4aef49d9f964a52041d721e3,The Ranelagh,82 Bounds Green Rd,Bounds Green,Bounds Green,N11 2EU,Pub,51.608727,-0.127178,0.9837294579747556,1.0,7.1,282.38123214272497,1349.513270416306,53
218,4b7c38ddf964a52079852fe3,The Springfield Bar & Grill,133 Bounds Green Rd,London,,N11 2PP,Pub,51.605573,-0.122862,0.9465686023268924,1.0,5.9,182.9275180327814,899.0675040809708,65
219,57f540f1498e052d698d84c4,Green Goose,112 Anglo Rd,London,Bow,E3 5HD,Pub,51.532153,-0.02812,0.9740169880859748,1.0,8.0,607.5020395688193,585.0056327016359,181
220,4ad9e432f964a520a31b21e3,The Coborn Arms,8 Coborn Rd,London,Bow,E3 2DA,Arts and Entertainment,51.527033,-0.030144,0.9314279590534013,1.0,7.5,299.7544724899957,459.1601138531249,151
221,4c07ac0f8a81c9b6b98a2790,The Little Driver,125 Bow Rd,London,Bow,E3 2AN,Pub,51.527811,-0.022526,0.988249052981768,1.0,6.5,177.7976782932755,74.9016984026679,206
222,50e83ec8e4b07c15b77a807c,The Albert,511 Roman Rd,London,Bow,E3 5EL,Pub,51.532521,-0.031925,0.8614650942824793,1.0,,778.626105253319,786.3692723517129,163
223,4cd5513689eb6dcba8c6271e,Young Prince,448 Roman Rd,London,Bow,E3 5LU,Pub,51.531971,-0.034091,0.9633586648091288,1.0,,742.3552297127009,867.044843137666,153
224,5013145ee4b0befd12bc7165,The Light House,421 Wick Lane,Greater London,,,Pub,51.533554,-0.022228,0.9646190260971668,1.0,,740.7912819906139,656.898183976207,96
225,539a0fdb498ef219412fe560,The Scotsman,96 Scotts Rd,Southall,Southall,UB2 5DE,Pub,51.50211,-0.394197,0.1040555211279418,1.0,,3205.2303017988843,5901.038827513535,96
226,4ad374f0f964a52081e420e3,White Horse,94 Brixton Hill,Brixton,Brixton,SW2 1QN,Pub,51.454979,-0.119839,0.9465779210794844,1.0,8.5,879.0786590303335,1307.0354371320748,132
227,4acefe60f964a52038d220e3,The Effra Hall Tavern,38 Kellett Rd,Brixton,Brixton,SW2 1EB,Arts and Entertainment,51.459887,-0.1132,0.9547714342958052,1.0,8.1,318.0231026891699,1435.123514982413,299
228,50bbc333e4b0c379f50c7800,Hootenannys,95 Effra Rd,London,,SW2 1DF,Pub,51.455341,-0.113217,0.5569865017868708,1.0,,798.549810078889,1641.4513413833292,103
229,5d0a80d6a35f460025affc59,Crofton Park Tavern,,London,Crofton Park,SE4 2BT,Pub,51.455891,-0.036698,0.975221436858462,1.0,,2234.8339660849306,582.0115222943323,82
230,581ce2223c94c10b923fae44,The Star & Garter,227 High St,Bromley,Bromley,BR1 1NZ,Gay Bar,51.406903,0.012454,0.9861989274115768,1.0,7.9,8467.443815377148,888.8708161542461,155
231,4bdde498ffdec92807dbe6a1,O'Neill's,27-29 East St,Bromley,Bromley,BR1 1QE,Pub,51.40695,0.015863,0.9485441778763496,,7.6,8555.063248659033,834.8332771037058,149
232,4e2890dc52b1c37d35c3660b,The Greyhound,205 High St,Bromley,Bromley,BR1 1NY,Pub,51.406398,0.013243,0.9769989889153438,1.0,7.0,8540.199188330573,816.8260890627662,156
233,4c0bf2f0009a0f4745dfebbf,The Richmal Crompton,23 Westmoreland Pl,Kent,Bromley,BR1 1DS,Pub,51.5237517,-0.3052365,0.9819146309075067,1.0,5.9,1032.0596279012345,1345.44504537109,32
234,4c016bbff7ab0f47301616b6,The Compass,10 Widmore Rd,Bromley,Bromley,BR1 1RY,Pub,51.406154,0.0162,0.8599438079218715,1.0,,8645.505500834906,744.3181933900667,141
235,4b43c55df964a52041e925e3,The Duke of Clarence,148 Old Brompton Rd,London,Earls Court,SW5 0BE,Pub,51.490911,-0.182595,0.9259811481635069,1.0,7.4,754.9455154307068,920.8587245846003,88
236,4ac518bdf964a520cfa220e3,The Stanhope Arms,97 Gloucester Rd,Kensington,South Kensington,SW7 4SS,Pub,51.494178,-0.18217,0.9956900769263026,1.0,6.9,638.1477932884271,1007.0942300510767,134
237,4ac518bdf964a520cca220e3,Zetland Arms,2 Bute St,Kensington,South Kensington,SW7 3EX,Pub,51.493446,-0.175839,0.9734368957371368,1.0,5.7,211.94236541401358,561.3182510084836,91
238,5d9a1c4274a03a0008ce7c3f,The Hunter’s Moon,,London,,SW3 6HR,Pub,51.490069,-0.17514,0.9848500379739168,1.0,,471.2747853412775,576.2926232597761,86
239,4db2f5726e8179a9135de531,"The Crown, Dovehouse Street",,Kensington,,,Pub,51.488579,-0.17577,0.7879098503874271,1.0,,642.2971275668258,705.5384653351888,74
240,4bf80ae5508c0f4787333e31,The Crown,153 Dovehouse St,London,Chelsea,SW3 6LB,Pub,51.49005,-0.173229,0.9361432478648408,1.0,5.4,447.58783916602886,466.1559397115419,112
241,4ba51efbf964a52027e038e3,The Glassbower,42 Glassbower St,London,Piccadilly,W1 B 5,Pub,51.493555,-0.183921,0.4241709804725539,1.0,,727.3389555579521,896.695543289589,138
242,4ac518bdf964a520cba220e3,Hoop & Toy,34 Thurloe Pl,Kensington,South Kensington,SW7 2HQ,Pub,51.494711,-0.174247,0.9761276855480124,1.0,5.5,113.58480343970466,502.4054561404266,85
243,4ace2bb3f964a520d1ce20e3,North London Tavern Kilburn,375 Kilburn High Rd,,Kilburn,NW6 7QB,Concert Hall,51.545549,-0.202573,0.9914453851207478,2.0,7.9,61.906501638719185,1192.721861455908,125
244,4b4a1978f964a5208b7a26e3,The Black Lion,274 Kilburn High Rd,London,Kilburn,NW6 2BY,Pub,51.543622,-0.199801,0.9544592560839806,1.0,7.5,270.6258830523415,1032.3968376910254,194
245,5891b1d9cc5b6a7ca7058b26,Sir Colin Campbell,264-266 Kilburn High Rd,London,Kilburn,NW6 2BY,Pub,51.543477,-0.199431,0.9673843659287767,1.0,6.9,300.8122123202623,1026.7802633093968,206
246,4b0d9700f964a520ba4b23e3,The King's Head,311 Kilburn High Rd,London,,NW6 7JR,Pub,51.54434,-0.200649,0.1571491140195973,1.0,,178.86918066122482,1089.541522181323,171
247,55214760498e1093805964cc,The Kingdom,,London,,,Pub,51.542831,-0.199365,0.6255142786586587,1.0,,350.75886902506454,962.5919751499123,197
248,4d03c6928620224b7204a540,The Kilburn Arms,99-101 Willesden Lane,London,,NW6 7SD,Pub,51.540796,-0.204725,0.943560974927896,1.0,5.8,429.6830228622461,652.0500974624179,117
249,59d2c33b112c6c4d6b586f40,Mcglynn’s,,London,,NW6,Pub,51.541181,-0.2011,0.9126110678824532,,,449.2299375682617,746.8291853978756,175
250,4c87888af554236a1068cd55,The Prince of Wales,99-101 Willesden Lane,Greater London,Kilburn,NW6 7SD,Pub,51.540851,-0.204692,0.8659147986450534,1.0,,432.3137920562618,658.2493306067986,117
251,4b9694e6f964a52057d634e3,The Tiger,18 Camberwell Green,Camberwell,Camberwell,SE5 7AA,Pub,51.473773,-0.092597,0.9821289622171177,1.0,8.0,1682.5389208429435,54.612546922238636,206
252,4c0bd246a1b32d7fb9899bf0,Joiners Arms,35 Denmark Hill,Camberwell,Camberwell,SE5 8RS,Pub,51.472356,-0.092817,0.9236071959407514,1.0,6.8,1762.532546133292,107.58245409429222,218
253,4d3b0ba6039eb60c0157f19c,The Old Dispensary,325 Camberwell New Rd,Camberwell,Camberwell,SE5 0TF,Beer Bar,51.474371,-0.093697,0.9589206088872944,1.0,6.3,1582.3452485404339,148.556261879739,201
254,4f569395e4b06f3517a9b5b0,The Nags Head,242 Camberwell Rd,London,Camberwell,SE5 0DP,Pub,51.476841,-0.094117,0.9698398572367104,1.0,,1424.2030770473318,373.86960352581855,198
255,4eac7953cc21b06a5736bc9a,Sebright Arms,31-35 Coate St,London,Bethnal Green,E2 9AG,Pub,51.531968,-0.063128,0.96556720917338,2.0,8.1,772.3236761069197,503.84518035317467,193
256,4b6dffe3f964a52055a22ce3,The Perserverance,112 Pritchards Rd,Hackney,Bethnal Green North,E2 9AP,Pub,51.535018,-0.062643,0.9566864379534156,1.0,5.8,1017.9347179478709,686.0325816691598,192
257,4ad86c31f964a5204e1121e3,The Old Eagle,251 Royal College St,London,Camden Town,NW1 9LU,Pub,51.54285,-0.139508,0.9716849702498824,1.0,8.1,105.499349751605,224.10709627667902,277
258,4e57e069d22d61e8f3408e62,The Colonel Fawcett,1 Randolph St,Camden Town,Camden Town,NW1 0SS,Pub,51.541765,-0.136043,0.9842559674961908,2.0,8.3,261.0839067549132,274.54101539383123,106
259,4ad011bef964a52080d720e3,The Hawley Arms,2 Castlehaven Rd,London,Camden,NW1 8QU,Pub,51.542083,-0.145564,0.9802186179358032,2.0,8.7,351.28984583721393,426.77051384243595,339
260,4ada4318f964a520a42021e3,The Elephants Head,224 Camden High St,London,Camden,NW1 8QR,Pub,51.540698,-0.143932,0.9862804664967548,2.0,7.9,164.3641222056679,286.40438194722844,355
261,4ee61a462da504839760f91a,The World's End,174 High St,Camden Town,Camden Town,NW1 0NE,Arts and Entertainment,51.539159,-0.142119,0.9956784284855628,1.0,7.8,73.68392652536158,127.26275150229685,344
262,4ad4f77af964a520040121e3,Prince Albert,163 Royal College St,London,Camden Town,NW1 0SG,Pub,51.539934,-0.137066,0.9647122136230843,1.0,7.5,291.17054933581755,195.5252146854572,233
263,4b1a1fbaf964a520a7e723e3,The Abbey Tavern,124 Kentish Town Rd,London,,NW1 9QB,Pub,51.545839,-0.141539,0.9739820427637556,1.0,7.6,438.67622543801684,401.874262621424,151
264,4cec1c920f196dcb70c55bae,Devonshire Arms,33 Kentish Town Rd,Camden Town,Camden,NW1 8NL,Pub,51.540935,-0.142322,0.984463309741358,2.0,7.1,190.81810304601777,176.56165644275686,336
265,4ba93cc0f964a52003173ae3,The Constitution,42 St Pancras Way,London,Camden,NW1 0QT,Music Venue,51.540281,-0.135388,0.9131142805224092,1.0,7.2,356.003894960757,280.4110419701398,173
266,4bfed4a24e5d0f475b3a7d1f,The Camden Eye,2 Kentish Town Rd,London,Camden Town,NW1 9NX,Concert Hall,51.53948,-0.142198,0.98874527655728,1.0,6.9,69.47800822384474,160.1518578794781,355
267,4bae8164f964a52091ba3be3,Oxford Arms,265 Camden High St,Camden Town,Camden,NW1 7BU,Pub,51.54057,-0.144377,0.9838389533177088,1.0,6.8,164.3978005067379,317.64239949006287,349
268,4ac518bcf964a52081a220e3,The Good Mixer,30 Inverness St,London,Camden,NW1 7HJ,Dive Bar,51.539487,-0.144393,0.979135312947009,1.0,6.5,87.77369983026887,270.95433453113225,314
269,4b994269f964a520516e35e3,The Ice Wharf,28 Jamestown Rd,London,Camden Town,NW1 7BY,Night Club,51.540346,-0.145704,0.9928385386332186,1.0,6.5,210.91239741184603,399.3723541000011,345
270,4ada427ef964a520a02021e3,Quinn's,65 Kentish Town Rd,London,Camden Town,NW1 8NY,Pub,51.543002,-0.142073,0.9639201196527832,,5.7,197.4019612605312,290.2753177916869,311
271,4ccc7ea6aa25a35d315c150f,Slatterys,69 Camden Rd,London,Camden Town,NW1 9EU,Pub,51.54232,-0.138089,0.1744843235284524,1.0,,127.05782085213151,199.7227914216034,232
272,4bed9e3b9868a59373ab5d46,The Golden Lion,88 Royal College St,Camden Town,Camden Town,NW1 0TH,Pub,51.539126,-0.135816,0.9376342482795254,1.0,6.1,415.7156981348081,166.3888140419639,220
273,4b62e64ef964a520ef572ae3,The Camden Arms,1 Randolf St,Camden Town,,NW1 0SS,Pub,51.541825,-0.135915,0.1909272624766448,1.0,,269.5733698770363,285.263493116718,111
274,50ddd19fe4b0eb1fd7b12261,Charringtons,,,,,Pub,51.540038,-0.134803,0.8755946528997628,1.0,,404.5990554736131,286.0078255310813,150
275,4bed6b249868a59397535d46,The Ledger Building,4 Hertsmere Rd,London,Canary Wharf,E14 4AL,Pub,51.507657,-0.024655,0.9872426277018558,2.0,6.8,557.8405841758741,830.2663156266146,134
276,4afb317bf964a520f51b22e3,The Henry Addington,22-28 Mackenzie Walk,London,Canary Wharf,E14 4PH,Pub,51.50447,-0.022204,0.9759879042591358,1.0,5.8,187.16436170272536,809.027039926391,131
277,5802a69cd67cb63bf31f71de,The Merchant,,London,,E14 4DH,Pub,51.506206,-0.022061,0.8284487538498096,1.0,5.6,325.08730906815356,702.546623087754,115
278,4acf71fbf964a520b9d320e3,The Fine Line,29-30 Fishermans Walk,London,Canary Wharf,E14 4DH,Pub,51.505946,-0.021854,0.6018166908177671,1.0,5.2,292.8328584176578,702.0339335084167,115
279,4fdb8783e4b0c183ab78edb1,Fridays,163 Marsh Wall,London,Poplar,E14 9SJ,Pub,51.501835,-0.023079,0.908548091752438,1.0,,297.87729495082914,1050.8815687141755,186
280,5c0965d132b61d002c650ae5,Leytonstone Tavern,119 Harrow Rd,London,,E11 3PX,Pub,51.559051,0.011114,0.9844702988058018,1.0,8.0,1058.0122040108754,1061.8432023983041,152
281,4d55a3e396ed548198180b70,The Holly Tree,141 Dames Rd,London,Forest Gate,E7 0DZ,Pub,51.555848,0.020425,0.9427129684420444,1.0,6.6,1650.1143513362604,846.2057631495933,63
282,53010a64498ef4e3a7f5f91a,Streeties,15 Shirley St,Greater London,Leamouth,E16 1HU,Pub,51.512897,0.012319,0.9480968777519442,1.0,,1498.6723120356996,1797.1512432319178,89
283,563d2bf8cd10bb44c2afc90e,Durham Arms,24 Stephenson St,London,Victoria Dock,E16 4SA,Pub,51.517317,0.004856,0.6973525423886758,1.0,,1179.7054710725297,1318.4662025338157,97
284,4ace246df964a520a9ce20e3,The Canonbury Tavern,21 Canonbury Pl,London,,N1 2NS,Pub,51.544722,-0.097591,0.973122387837164,1.0,7.9,398.76655745076266,177.78471633976028,161
285,4ad07825f964a52021d820e3,The Lord Clyde,340-342 Essex Rd,Canonbury,Islington,N1 3PB,Beer Bar,51.543776,-0.089921,0.9760368277102428,1.0,6.8,663.3152716532436,557.0557428978811,149
286,60771f576636595536baeec7,The Engle Field,,London,,N1 3PB,Pub,51.543819,-0.089801,0.9749115883347856,1.0,,665.3547510549521,549.6256568166392,146
287,5af40e9a149946002c07a192,The Seveney,382 Essex Rd,London,,N1 3PF,Pub,51.544871,-0.088429,0.9368747699432954,1.0,,660.6227806600897,493.0536820100824,150
288,4bcc89e13740b713102d6465,The Chancellors,25 Crisp Rd,London,Hammersmith,W6 9RL,Pub,51.488556,-0.226965,0.9202058512447524,1.0,8.2,508.0141005917465,698.9930334278058,156
289,4b7171f8f964a520fc462de3,The Rutland,15 Lower Mall,Hammersmith,Hammersmith,W6 9DJ,Pub,51.489811,-0.231332,0.978844101928516,1.0,7.3,569.5663041510445,728.5087445622871,145
290,4ac518bdf964a520c5a220e3,The Old City Arms,107 Hammersmith Bridge Rd,London,Hammersmith,W6 9DA,Pub,51.489439,-0.228902,0.9355142320648958,1.0,6.2,529.3551298441467,661.0807172817093,179
291,4f4fc093e4b07dc4f09da447,Catford Bridge Tavern,Station Approach,Catford,Catford,SE6 4RE,Pub,51.444608,-0.024363,0.9513863974168418,1.0,7.9,3649.208227394111,1843.0158090598477,152
292,5c5cb89275eee40039715bb0,Ninth Life,167 Rushey Green,London,Rushey Green,SE6 4BD,Pub,51.445213,-0.019424,0.9825832514059668,1.0,7.6,3706.1469580258913,1811.8088432508391,194
293,556f0fc9498e8a8ed316ada1,The Black Cat,9 Winslade Way,Catford,Catford,SE6 4JU,Pub,51.445876,-0.021489,0.8751357043346177,1.0,,3583.5054500774913,1915.1822333007883,171
294,4c87aa9c821e9eb095cc8d89,The London & Rye,109 Rushey Green,Catford,Catford,SE6 4AF,Pub,51.447563,-0.017719,0.9856025272457029,1.0,5.0,3497.683450251374,1865.0654359977332,207
295,53cabdb4498eb39a55d3e078,The Lansdowne,90 Gloucester Ave,Primrose Hill,Camden,NW1 8HX,Pub,51.541396,-0.153404,0.9577068413622152,1.0,7.8,280.0603229133643,925.0502847226053,118
296,4ada437ef964a520a92021e3,Sir Richard Steele,97 Haverstock Hill,Belsize Park,Belsize Park,NW3 4RL,Pub,51.546876,-0.158871,0.9216269610149984,1.0,8.0,480.1472538560134,1108.6076098024173,104
297,4ac518c7f964a52058a520e3,The Pembroke,150 Gloucester Ave,London,,NW1 8JA,Pub,51.542409,-0.154896,0.9605467312145596,1.0,7.1,181.1628676554717,1061.233657309305,126
298,4af9f45ff964a520891522e3,The Enterprise,2 Haverstock Hill,London,Belsize Park,NW3 2BL,Pub,51.544126,-0.152844,0.9864249071619272,1.0,6.3,73.31830415890397,955.0452712094343,166
299,4ad3c1d8f964a52029e620e3,Princess of Wales,22 Chalcot Rd,London,Primrose Hill,NW1 8LL,Beer Bar,51.540347,-0.153859,0.9524533945886005,1.0,6.9,395.07830512368383,917.7230725089828,90
300,6097f9f3650d8f68b5897f18,The Farrier,87/88 North Yard,Chalk Farm,,NW1 8AH,Pub,51.542629,-0.149004,0.9782034376878312,1.0,,363.0690760595889,671.3299848807382,251
301,5de3e165f3d152000788d63d,The Haverstock Tavern,94 Haverstock Hill,London,,NW3 2BD,Pub,51.546664,-0.157625,0.9596591200301928,1.0,,403.69218347292843,1118.5081568434289,121
302,4c34dffe213c2d7f623c395d,Queens No 1,1 Edis St,Camden Town,,NW1 8LG,Arts and Entertainment,51.539758,-0.152567,0.8669468504945927,1.0,,468.90856022439544,815.5969718614365,92
303,4aec40e1f964a520b0c521e3,Sherlock Holmes,10 Northumberland St,Charing Cross,Strand,WC2N 5DB,Pub,51.507324,-0.1252,0.9948653673219304,2.0,8.0,156.6738240334492,160.97975692635342,425
304,4b3f6928f964a5207fa625e3,Ship & Shovel,1-3 Craven Passage,London,Charing Cross,WC2N 5PH,Pub,51.50756,-0.124782,0.978799837853705,1.0,7.8,135.55392675840883,122.04533131992704,428
305,4b784f68f964a52040c42ee3,The Old Shades,37 Whitehall,City of Westminster,Westminster,SW1A 2BX,Pub,51.506493,-0.126804,0.9861127289501028,2.0,7.9,274.4914527221685,159.2722917001517,346
306,4b21114bf964a5208f3624e3,The Clarence,53 Whitehall,London,Westminster,SW1A 2HP,Pub,51.506172,-0.126724,0.9887406171809842,1.0,7.1,280.3368746685694,123.50141418793777,288
307,4ac518baf964a520d4a120e3,The Salisbury Pub,,London,Covent Garden,WC2N 4AP,Pub,51.510909,-0.127233,0.989546689280173,1.0,7.3,107.69562808120499,99.48187468731747,1240
308,4ac518bcf964a5208fa220e3,The Chandos,,Charing Cross,Covent Garden,WC2N 4ER,Pub,51.509578,-0.12676,0.9916201117318436,2.0,6.9,243.0290551067739,156.9096067810056,926
309,4ac518c5f964a520c0a420e3,Round Table,,Leicester Square,Covent Garden,WC2N 4AL,Pub,51.511036,-0.12798,0.9603813233560556,1.0,7.1,60.68861241217504,61.09862023260124,1257
310,4d5575a648ea6ea8326fd5a3,Opera Room,,London,,,Pub,51.509501,-0.126701,0.830032941790412,1.0,6.8,252.49242595777991,153.72949274588834,923
311,4f19a7b3e4b088d4a00fcc4f,The Marquis,51-52 Chandos Pl,London,Strand,WC2N 4HS,Pub,51.509793,-0.125622,0.9765307215976068,1.0,6.6,273.09734262641206,78.67470456468469,846
312,4acf80bcf964a52026d420e3,The Lemon Tree,4 Bedfordbury,London,Covent Garden,WC2N 4BP,Pub,51.510003,-0.125769,0.9571547052711524,1.0,6.5,249.86368802326965,94.82067152112695,873
313,4b3e7ca8f964a520de9d25e3,The Princess of Wales,27 Villiers St,Charing Cross,Charing Cross,WC2N 6ND,Pub,51.508207,-0.123656,0.993034232437646,1.0,6.0,131.2783406415598,19.63916072861471,456
314,4b083cdbf964a520000723e3,Silver Cross,33 Whitehall,Charing Cross,Westminster,SW1A 2BX,Pub,51.506535,-0.127053,0.9737747005185886,1.0,6.4,290.1517661313827,156.50451635182174,414
315,4aef2314f964a520f0d521e3,Theodore Bullfrog,28 John Adam St,Charing Cross,Charing Cross,WC2N 6HL,Pub,51.508844,-0.123909,0.971407737360277,1.0,5.9,203.83536716649525,78.67934343155095,543
316,4ae9aca2f964a5209fb521e3,The Lord Moon of the Mall,16-18 Whitehall,London,Westminster,SW1A 2DY,Pub,51.506462,-0.127464,0.8790565694876084,2.0,6.0,319.6899582412334,162.8536710317367,428
317,618d37ec82095024932e3909,Horse and Guardsman,16-18 Whitehall,City of Westminster,,SW1A 2DY,Pub,51.506508,-0.127361,0.9422074261139404,1.0,,311.6124939796011,157.69541670334027,428
318,4da98bf3cda1652a2b75abef,Bugle Horn,6 The Village,London,Charlton,SE7 8UD,Pub,51.481603,0.036499,0.857658383848738,1.0,,3103.452196182153,1398.025349082945,50
319,4b817c4df964a52068a930e3,The Cross Keys,1 Lawrence St,Kensington,Chelsea,SW3 5NB,Pub,51.483414,-0.170481,0.9334664361828524,1.0,8.5,1195.1996801847522,993.1579108177314,68
320,4b3b5363f964a5207e7225e3,The Phoenix,23 Smith St,London,Chelsea,SW3 4EE,Pub,51.488749,-0.16285,0.9628344849758412,1.0,8.1,633.1713353712148,438.79683451254334,77
321,4dd56b1d6365d68ffa75f789,The Surprise,6 Christchurch Terrace,Chelsea,Chelsea,SW3 4AJ,Pub,51.486266,-0.162709,0.9558151345860844,1.0,7.8,838.8238157554641,687.5336121248098,55
322,4b55f12cf964a520d1f727e3,Coopers Arms,87 Flood St,Chelsea,Chelsea,SW3 5TB,Pub,51.486207,-0.165124,0.9602927952064336,1.0,7.2,945.5574090025996,649.6292029088626,54
323,4bc22283abf49521cf06c293,The Sydney Arms,Sydney St,Chelsea,, Sw3,Pub,51.488642,-0.169781,0.9502774658584202,1.0,6.8,638.1097907962385,437.17733189677887,111
324,4ac518c4f964a5207aa420e3,The Pig's Ear,35 Old Church St,London,Chelsea,SW3 5BS,Pub,51.484409,-0.172349,0.9366418011285008,1.0,7.2,1074.2468772086302,936.0639684465716,71
325,4ac518bcf964a52094a220e3,Chelsea Potter,,Chelsea,Chelsea,SW3 4PL,Pub,51.488446,-0.165872,0.9790397957329432,1.0,6.5,787.3939295458447,396.1193129098799,103
326,4ad785bbf964a520bf0b21e3,De Hems Dutch Cafe Bar,11 Macclesfield St,Soho,West Central,W1D 5BW,Pub,51.512129,-0.131253,0.9901361003816028,2.0,8.1,204.37207615187899,219.85918233508687,1200
327,4adf266af964a520df7721e3,Waxy O'Connor's,14-16 Rupert St,London,Soho,W1D 6DD,Pub,51.51078,-0.132348,0.9889060250394882,2.0,8.3,125.35010269887381,299.6358605536426,1188
328,4ac518d7f964a52057a820e3,The French House,49 Dean St,London,Soho,W1D 5BG,Pub,51.512702,-0.131729,0.9856491210086618,1.0,7.9,262.1161477625925,274.4673570317634,1263
329,4b2a956af964a520ceab24e3,The Lyric,37 Great Windmill St,Soho,Soho,W1D 7LU,Pub,51.511228,-0.134365,0.9888990359750444,1.0,7.9,116.238351449281,427.8175310965752,1182
330,4ad26ce6f964a52091e120e3,O'Neill's,33-37 Wardour St,Soho,Soho,W1D 6PU,Pub,51.511277,-0.132138,0.995382558090774,2.0,7.4,170.35949408242243,273.9423810297736,1199
331,4adcb6b2f964a520022f21e3,The Toucan,19 Carlisle St,London,Soho,W1D 3BY,Pub,51.515128,-0.133094,0.9688986632249408,,7.8,231.51693953085655,498.72430388339166,886
332,4ac518bef964a52020a320e3,The Dog & Duck,18 Bateman St,Soho,Soho,W1D 3AJ,Pub,51.51399,-0.131954,0.9794451614706856,2.0,7.5,292.2195462939285,373.93179807708674,1261
333,4b38d411f964a520d85025e3,The Porcupine,48 Charing Cross Rd,Leicester Square,Covent Garden,WC2H 0BS,Pub,51.51179,-0.128071,0.9875781027951598,1.0,7.2,45.04422644347162,26.52252769338947,1223
334,4ae216c5f964a520978a21e3,Coach & Horses,29 Greek St,Soho,,W1D 5DH,Pub,51.513367,-0.130226,0.9782220751930146,2.0,7.0,241.78252903165657,244.09347493614902,1236
335,4ac518bcf964a52086a220e3,The Blue Posts,28 Rupert St,London,Soho,W1D 6DJ,Pub,51.511101,-0.132428,0.9709953825580908,1.0,7.0,142.33021208796146,296.66763953177195,1203
336,4ac518c3f964a5203ba420e3,The John Snow,39 Broadwick St,London,Soho,W1F 9QJ,Pub,51.513233,-0.136627,0.9780659860871024,2.0,7.1,382.21965714967115,362.829133872605,1076
337,4ace44acf964a52080cf20e3,The George,,Soho,Soho,W1F 8DG,Pub,51.514916,-0.135329,0.9782407126981982,1.0,7.1,364.0673449977632,525.2737007743319,866
338,4be6b69fcf200f4787c8143c,The Cambridge,93 Charing Cross Rd,London,Covent Garden,WC2H 0DP,Pub,51.513616,-0.129526,0.988957278178743,1.0,6.6,248.09701791361985,245.44228988537387,1176
339,4ad771e0f964a5208f0a21e3,The Crown & Two Chairmen,31-32 Dean St,Soho,Soho,W1D 3SB,Beer Bar,51.513917,-0.132365,0.981693310533452,2.0,6.7,311.8424788598495,388.6844746249016,1271
340,4ac518c6f964a52035a520e3,The Spice of Life,6 Moor St,London,Soho,W1D 5NA,Pub,51.513384,-0.129849,0.987484915269242,1.0,6.5,231.66333862634914,231.80231530356562,1236
341,4acf9f24f964a52004d520e3,Waxy's Little Sister,20 Wardour St,London,Soho,W1D 6QG,Night Club,51.511183,-0.131828,0.9768778451316508,1.0,6.3,180.072852841311,254.19695199378873,1194
342,4b7daaeff964a52075cd2fe3,The Montagu Pyke,105-107 Charing Cross Rd,London,Covent Garden,WC2H 0DT,Pub,51.514026,-0.130009,0.989253148573532,1.0,6.6,264.59422348385414,300.5219675094292,1173
343,4b59ea79f964a5209fa028e3,Two Brewers Covent Garden,40 Monmouth St,London,Covent Garden,WC2H 9EP,Pub,51.513391,-0.127373,0.9498022094762396,2.0,6.6,217.49585757999608,210.87153487965998,1020
344,4ad204d6f964a520dfde20e3,Old Coffee House,49 Beak St,Soho,Soho,W1F 9SF,Pub,51.512552,-0.137315,0.9743291662977994,2.0,6.9,349.913251564944,287.06746263181594,993
345,4b535517f964a520b79727e3,The Duke of Argyll,37 Brewer St,Soho,Soho,W1F 0RY,Pub,51.511865,-0.134619,0.9864435446671108,1.0,6.5,189.20417478406938,444.9636822699936,1229
346,4ad4bf4af964a52007e920e3,The Nellie Dean,89 Dean St,London,Soho,W1D 3SU,Beer Garden,51.514734,-0.133425,0.9828069014681696,1.0,6.7,279.98754241893613,504.37887510611006,1007
347,4af33009f964a5208deb21e3,The Three Greyhounds,25 Greek St,London,Soho,W1D 5DD,Pub,51.513367,-0.130226,0.9791143457536774,2.0,6.3,241.78252903165657,244.09347493614902,1236
348,4b6a083af964a52000c32be3,The Queen's Head,15 Denman St,Piccadilly,Soho,W1D 7HN,Pub,51.510803,-0.135356,0.9611501204448772,1.0,6.5,118.65265704485294,413.123001084407,1102
349,4ad70cf9f964a5208b0821e3,The Moon Under Water,28 Leicester Square,London,Leicester Square,WC2H 7LE,Pub,51.510428,-0.129449,0.9925147119806542,1.0,6.1,134.4923494045,153.06251470319953,1261
350,4b3cd581f964a520f68725e3,Golden Lion Soho,51 Dean St,Soho,Soho,W1D 5BH,Pub,51.512428,-0.131804,0.9846683222983772,1.0,6.1,252.40294162610041,266.69744054747184,1265
351,4bad0ecbf964a52040293be3,Three Crowns Piccadilly,19 Babmaes St,Piccadilly,,SW1Y 6HD,Pub,51.508698,-0.135262,0.9536997777477508,1.0,6.6,193.0479796061429,522.5627258402426,793
352,4ace3996f964a5202fcf20e3,The Glasshouse Stores,55 Brewer St,Soho,Soho,W1F 9UJ,Pub,51.511394,-0.135455,0.9570289021111634,1.0,6.3,168.30314241695024,397.0250465973567,1150
353,4b50ca67f964a520b03227e3,The Imperial,5 Leicester St,Soho,Covent Garden,WC2H 7BL,Pub,51.510901,-0.130901,0.9786157924900172,1.0,5.8,178.8404083120248,200.6040944539536,1187
354,4b3fb763f964a52011ad25e3,St James Tavern,45 Great Windmill St,Piccadilly,Soho,W1D 7NE,Pub,51.510864,-0.134037,0.984589112901347,1.0,6.2,72.06593970693919,410.959583620942,1147
355,4b3ba489f964a520cf7725e3,Brewmaster,37 Cranbourn St,London,Covent Garden,WC2H 7AD,Pub,51.511362,-0.127965,0.9959929363855354,1.0,5.9,38.62839339360386,28.28566931451304,1234
356,4b2a77acf964a520bca924e3,The White Horse,45 Rupert St,London,Soho,W1D 7PB,Pub,51.511802,-0.13365,0.955617111093509,1.0,5.8,176.90018583344545,377.57623332551685,1234
357,4ac518bef964a5201fa320e3,Crown,43 Monmouth St,London,Covent Garden,WC2H 9EW,Pub,51.5139,-0.12688,0.9854441084516428,1.0,6.1,202.32288693811046,275.191779125887,934
358,4b0ac68af964a520a42723e3,The Crown - Brewer Street,64 Brewer St,Soho,,W1F 9TP,Arts and Entertainment,51.511308,-0.136148,0.9804026632994908,1.0,6.1,195.98430681670573,349.979224817339,1082
359,4b0196b8f964a520aa4322e3,Tom Cribb,36 Panton St,London,Haymarket,SW1Y 4EA,Pub,51.509557,-0.131901,0.9690617413952968,1.0,5.8,157.98207794812586,339.5670366093326,1070
360,4c5c830d85a1e21e60df5611,Lupo Bar,,,,,Pub,51.512638,-0.131649,0.5555351060707013,1.0,,253.7132862103066,266.30574604217645,1264
361,4cc5c83c914137045f9dcb55,White Horse,Covent Garden,London,,,Pub,51.512826,-0.13257,0.7962058698822576,1.0,,304.46224653690774,332.8052082475633,1324
362,4ac518c3f964a5203aa420e3,Blue Posts,22 Berwick St,Soho,Soho,W1F 0QA,Pub,51.513744,-0.134943,0.9791399723233049,1.0,5.9,398.19513057555207,492.27652318520603,1210
363,5e3f17362598080008bef026,Coach & Horses,2 Old Compton St,London,,W1D 4TA,Pub,51.513928,-0.129794,0.9782570205152338,1.0,,276.8406768855512,284.5764784245718,1164
364,4c0fbb3cc6cf76b0c1bf8251,Glassblower,40-42 Glasshouse St,Piccadilly,Soho,W1B 5JY,Pub,51.510567,-0.136965,0.9805773899105864,1.0,5.9,214.2318832501538,314.2153925468651,877
365,58cfb4e315fb433bd09275c4,The Drum Arms,,,,,Pub,51.510589,-0.135303,0.1135490003308157,1.0,,104.13443795101091,422.50500225858315,1070
366,4ad8a741f964a5204c1321e3,Pillars of Hercules,7 Greek St,Soho,Soho,W1D 4DF,Pub,51.514629,-0.131016,0.9218040173142424,1.0,5.4,203.5798735902132,392.0606868146898,1013
367,4c13a64a82a3c9b680c4fbf8,Watneys Ales,,,The West End,,Pub,51.513568,-0.135233,0.1992419194766588,1.0,,383.2092141297121,465.33303761109084,1231
368,4cd9a1305e1b721e594b40d9,The George Pub,Charing Cross Rd,London,,,Pub,51.515626,-0.130501,0.5345772314917925,1.0,,87.53674500916628,478.4437198286219,756
369,4dc5b57fae608779d142e67e,Star and Garter,,London,,,Pub,51.513563,-0.136518,0.8932676671900699,1.0,,369.3926582145846,388.58375858306016,1042
370,5d8cf68f2a74600007c6f72f,The Beau Brummell,3 Norris St,London,,SW1Y 4RJ,Pub,51.509179,-0.133046,0.927614259555216,1.0,,130.60455759936752,414.9731715810493,989
371,4ac518bbf964a52032a220e3,The Angel,61 St Giles High St,London,Covent Garden,WC2H 8LE,Pub,51.515478,-0.127844,0.9714706389402714,2.0,5.3,196.70075855088982,435.60882953619165,685
372,4aded2f9f964a520c57621e3,Star and Garter,62 Poland St,London,,W1F 7NX,Pub,51.513612,-0.136359,0.9501353548813956,2.0,5.2,376.521650244102,400.75954964806164,1088
373,4ac518c1f964a520e9a320e3,The Warwick,1-3 Warwick St,Soho,Soho,W1B 5LR,Cocktail Bar,51.510712,-0.137335,0.3862040527255022,2.0,5.1,242.58337631702142,284.5064666076668,875
374,61929b88f231606563615bc1,The Flowerhouse Pub,56 Blandford St,London,,W1U 7JA,Pub,51.51841955,-0.1547757110344195,0.3443232488899036,1.0,,453.33120552167,582.3438991411261,175
375,4b33bd53f964a520351e25e3,Kings Head,2b Kings Head Hill,London,Chingford,E4 7EA,Pub,51.631829,-0.001853,0.9778167094552724,1.0,6.8,3434.8853158427123,0.0,47
376,4d6a8e4a30a7236ac17d83ac,Station House,134-138 Station Rd,Chingford,Chingford,E4 6AN,Pub,51.633687,0.009561,0.03904557335955,1.0,6.3,2721.315352442565,814.4206387522659,29
377,4b3cb437f964a520528625e3,The Crown & Anchor,374 Chiswick High Rd,London,Chiswick,W4 5TA,Beer Bar,51.492666,-0.263671,0.9298204742313194,1.0,7.0,410.4326154972007,382.6057828591483,61
378,4ee61a462da504839760f8a4,Connolly's,450 Chiswick High Rd,London,Chiswick,W4 5TT,Pub,51.492919,-0.267456,0.9329678829191924,1.0,7.2,210.7724900190521,646.0370582909868,54
379,504e3928e4b0c8862c1ae038,The Lamb,9 Barley Mow Passage,London,Chiswick,W4 4PH,Pub,51.491775,-0.261921,0.9675124987769136,1.0,6.9,566.1953318204082,261.0718736354792,65
380,5c48c89e054e29002cacbd4e,The Crown,210 Chiswick High Rd,London,,W4 1PD,Pub,51.492774,-0.256828,0.9477031604549416,1.0,7.2,325.7483078579111,34.23748022300388,71
381,5d23b93938c7d60024ed7856,The King of Prussia,363 Regents Park Rd,London,,N3 1DH,Pub,51.600701,-0.194737,0.9793170286225484,1.0,,165.2618012500259,2338.593610432949,77
382,53a6f2ce498eac9e642f0192,No 32 the Old Town,32 The Pavement,Clapham,Clapham,SW4 0JE,Pub,51.46316,-0.14058,0.9681811192753738,1.0,7.8,251.20925188558707,512.63520454559,181
383,4dd937b5fa76ad96d14fda9e,The King & Co,100 Clapham Park Rd,London,Clapham,SW4 7BZ,Beer Bar,51.459409,-0.133983,0.9760741027206098,1.0,8.3,368.01009058334216,434.87196632397445,197
384,4acfb460f964a5206ed520e3,The Bread & Roses,68 Clapham Manor St,Clapham,Clapham,SW4 6DZ,Pub,51.465948,-0.13651,0.9405347100237162,1.0,7.2,492.30345491739416,374.9722013927183,230
385,4ac518bcf964a52084a220e3,The Belle Vue,1 Clapham Common South Side,London,Clapham,SW4 7AA,Pub,51.461781,-0.137666,0.9626131646017864,1.0,6.4,34.71810892507035,352.8941376834416,230
386,4ba7b9b8f964a52069ad39e3,Rose & Crown,2 The Polygon,London,Clapham,SW4 0JG,Pub,51.463605,-0.1415,0.9193205697485336,1.0,6.3,331.4062736039571,577.2462859972779,183
387,4af5e54ef964a52071fe21e3,Prince of Wales,38 Old Town,London,Clapham,SW4 0LB,Pub,51.464024,-0.141795,0.929750583586881,1.0,6.3,378.7621825009865,602.1898207551768,172
388,4ada25f5f964a5201c1f21e3,The Alexandra,14 Clapham Common South Side,London,Clapham,SW4 7AA,Pub,51.461382,-0.138091,0.9856095163101468,1.0,6.0,20.394770506058048,400.65945208774525,225
389,5ae9fcb2c53093002c6aeaf0,The Rectory,,London,,SW4 0DR,Pub,51.46569,-0.140875,0.9233695677496612,1.0,5.8,500.01529000190266,596.0507250539963,162
390,59d00975b9a5a874d8850569,Clapham Tap,128 Clapham Manor St,London,,SW4 6ED,Pub,51.464425,-0.135513,0.9445883674011396,1.0,,362.8401510864663,205.03172758393166,245
391,619a72ff9616d3577fc6e0a0,The Pig’s Head,87 Rectory Grove,London,,SW4 0DR,Pub,51.465686,-0.141043,0.9180765162775312,1.0,,504.3274136129256,606.2816989841502,156
392,4b561150f964a520b6fe27e3,The Grey Goose,100 Clapham Park Rd,London,,SW4 7BZ,Pub,51.459409,-0.133983,0.8567195195251164,1.0,,368.01009058334216,434.87196632397445,197
393,60d7a9a5d95c69162585f6fd,The Saxon,50 Clapham High St,London,,SW4 7UL,Pub,51.463909,-0.132598,0.9667996142036428,1.0,,259.4401151089051,80.06612894921092,267
394,4ace3d36f964a5204ccf20e3,The Dovetail,9-10 Jerusalem Passage,Clerkenwell,Clerkenwell,EC1V 4JP,Pub,51.523231,-0.103987,0.9439150875263838,2.0,8.0,328.5134444362652,690.4859075866963,174
395,4ac518bdf964a520bda220e3,The Eagle - Farringdon Road,159 Farringdon Rd,Clerkenwell,Clerkenwell,EC1R 3AL,Pub,51.524151,-0.109838,0.9620680175751674,2.0,8.3,532.6158513756483,660.0225208646991,154
396,4b21501df964a520003a24e3,The Exmouth Arms,23 Exmouth Market,Clerkenwell,Clerkenwell,EC1R 4QL,Beer Bar,51.525782,-0.10967,0.9820963465830465,2.0,8.3,679.6367421610311,786.0842566794915,137
397,4abdc1c7f964a5206d8b20e3,The Crown Tavern,43 Clerkenwell Green,Clerkenwell,Clerkenwell,EC1R 0EG,Pub,51.523174,-0.105212,0.9746693007673992,2.0,7.4,312.63114738718605,699.5147956222647,158
398,4ad31db8f964a5201ce320e3,The Betsey Trotwood,56 Farringdon Rd,Clerkenwell,The City,EC1R 3BL,Pub,51.523314,-0.108058,0.9670884955339878,1.0,7.4,385.76558299360636,723.0389271221298,161
399,4acdba5cf964a520d8cc20e3,The Gunmakers,13 Eyre St,Clerkenwell,Clerkenwell,EC1R 5ET,Pub,51.522658,-0.110564,0.9216898625949932,2.0,7.5,454.59930778700055,534.9432767854703,147
400,5a60e8bbbd40093d60dc5abb,The Coach,26-28 Ray St,London,Clerkenwell,EC1R 3DJ,Arts and Entertainment,51.523039,-0.109324,0.9204201825543632,1.0,7.2,415.7953730329302,630.5073186763767,159
401,4e2882a218a83a1362331239,The Wilmington,69 Rosebery Ave,London,Clerkenwell,EC1R 4RL,Pub,51.526145,-0.109999,0.9683535161983216,2.0,7.3,725.9525038754676,799.9618946639935,151
402,4ae75018f964a5204baa21e3,Old China Hand,8 Tysoe St,London,Clerkenwell,EC1R 4RQ,Pub,51.526732,-0.109001,0.851235433624855,2.0,7.0,681.9004937233333,813.654825168583,141
403,4ad84c0cf964a520fa1021e3,Old Ivy House,166 Goswell Rd,London,Central,EC1V 7DT,Pub,51.525868,-0.099542,0.8979829560015097,1.0,6.9,569.8365610538973,1004.2373336011999,180
404,4ad3b7b9f964a520e1e520e3,Sekforde Arms,34 Sekforde St,London,Clerkenwell,EC1R 0HA,Pub,51.52424,-0.10438,0.96379897586909,1.0,6.2,434.1917044641749,805.2445525303357,162
405,4c61519c12e5c928573e214c,The City Pride,28 Farringdon Lane,London,Clerkenwell,EC1R 3AN,Pub,51.523041,-0.106942,0.9294197678698728,1.0,6.3,323.194726785969,723.7842485278901,173
406,4ada5f0bf964a520f82121e3,The Horseshoe,24 Clerkenwell Close,London,Clerkenwell,EC1R 0AG,Pub,51.523965,-0.106837,0.9376575451610047,1.0,6.1,417.6485263509167,816.5927617882179,156
407,4b4cb98ff964a520f6bb26e3,The One Tun,125 Saffron Hill,Greater London,The City,EC1N 8QS,Pub,51.519764,-0.106463,0.953725404317378,1.0,6.7,113.96039983446876,393.0924153344862,159
408,4b6c1011f964a520f2212ce3,The Bowler - Brakspear Pubs,28-32 Bowling Green Lane,Clerkenwell,,EC1R 0BJ,Pub,51.524456,-0.107912,0.8946911066484641,1.0,5.5,494.24885052887083,790.2564230673552,151
409,4acdd211f964a52023cd20e3,Apple Tree Clerkenwell,45 Mount Pleasant,London,Clerkenwell,WC1X 0AE,Pub,51.52356,-0.112122,0.896121535171302,1.0,5.9,582.1122474550086,494.1032678757724,170
410,5d26150b972c0d00230bba3d,Dame Alice Owen,,London,,EC1V 4NB,Pub,51.526521,-0.104183,0.9552140750439146,1.0,,677.355550115081,951.1519511815571,156
411,4acdd1a0f964a52021cd20e3,The Duke of York,156 Clerkenwell Rd,London,,EC1R 5DU,Pub,51.521887,-0.110849,0.0889777794344449,1.0,,392.73762489576785,488.2304064240581,153
412,51535ea3e4b04e3a8af3f261,Chandos Arms,31 Colindale Ave,London,The Hyde,NW9 5DS,Pub,51.593168,-0.255475,0.9338158894050442,1.0,7.2,464.6240596683227,734.2652402648695,107
413,51448014e4b0554c23658186,The Charles Holden,198 High St Colliers Wood,Colliers Wood,Wimbledon,SW19 2BH,Pub,51.417956,-0.178677,0.981688651157156,1.0,8.4,55.79601308315054,1759.4505105211047,70
414,4c6800f69cedd13abe5379a1,The Royal Standard,180 High St Colliers Wood,London,Colliers Wood,SW19 2BN,Pub,51.418355,-0.178253,0.9689452569878996,1.0,,21.400870200966988,1779.9118896072257,66
415,4ac518c5f964a520d5a420e3,Princess Louise,208 High Holborn,London,Holborn,WC1V 7BW,Pub,51.51728,-0.121619,0.9895233923986936,1.0,8.2,76.34606869384012,473.88636962546036,243
416,4b1d3fb8f964a5209c0d24e3,The White Hart,191 Drury Lane,Holborn,Covent Garden,WC2B 5QD,Music Venue,51.5145112,-0.1219002,0.9773624202664232,1.0,6.6,228.5142718791921,514.7320287787425,301
417,4ad9cbdbf964a520ee1a21e3,The Old Crown,33 New Oxford St,London,Holborn,WC1A 1BH,Pub,51.516906,-0.125053,0.986476160301182,2.0,6.5,312.4084849591828,632.5182001395191,372
418,4bedbab94daaa593af218f61,The Old Crown Pub,144 Whiston Rd,Hackney,,E2,Pub,51.517013,-0.125079,0.0682458846058866,1.0,,313.5681216304385,643.0905399464104,350
419,4c0e98eb98102d7ffaebe306,The Beaten Docket,50-56 Cricklewood Broadway,Cricklewood,Cricklewood,NW2 3ET,Pub,51.553672,-0.211667,0.983456884461446,1.0,6.8,818.639412650439,2132.655920352444,134
420,4b0c65d1f964a520753c23e3,Brockley Jack,408 Brockley Rd,Brockley,Brockley,SE4 2DH,Concert Hall,51.45343,-0.03847,0.9632398507135836,1.0,7.0,2496.9179212247354,858.3480264575423,49
421,5a42b6f8cf72a02cf1b3dc0c,Small Beer,"22 Topsfield Parade, Tottenham Lane",Crouch End,,N8 8PT,Pub,51.580374,-0.123084,0.957084814626714,1.0,8.7,1590.1927016126606,116.7931197033784,83
422,4b86bdf5f964a520389a31e3,The Kings Head,2 Crouch End Hill,Crouch End,Crouch End,N8 8AA,Comedy Club,51.578209,-0.124311,0.9472535306423884,2.0,7.9,1470.4034207990821,90.01573047461113,80
423,4e569db51838c793c07a6251,Earl Haig Hall,18 Elder Ave,Crouch End,Hornsey,N8 9TH,Pub,51.580708,-0.121688,0.7459917715414615,1.0,7.1,1671.1787473533907,219.19948580187895,94
424,4c6fecd8b3ce224ba71d72c6,Railway Tavern,23 Crouch End Hill,Crouch End,Crouch End,N8 8DH,Pub,51.57761,-0.1244,0.945289603533671,1.0,6.4,1460.788579943899,156.06742697384004,86
425,4ac518c7f964a52050a520e3,Maynard Arms Crouch End,70 Park Rd,London,Crouch End,N8 8SX,Pub,51.581745,-0.126192,0.96943216181082,2.0,6.6,1427.843062087922,243.10822798036656,82
426,4ba2902ff964a520b10438e3,Kiss the Sky,18-20 Park Rd,Crouch End,Hornsey,N8 8TD,Arts and Entertainment,51.580741,-0.124511,0.8638833105800457,1.0,6.1,1504.2681086434766,102.30180743239781,75
427,4f1c4963e4b085450794fe62,The Henry Reader,,London,,,Pub,51.580314,-0.123212,0.1539644303213571,1.0,,1580.1017387350403,105.76589729243072,83
428,4b647ef8f964a52009b82ae3,The Wishing Well,22 Topsfield Parade,London,Crouch End,N8 8PT,Pub,51.58105,-0.122489,0.3779220113595594,1.0,,1648.1145744582975,195.93357744690303,93
429,4d4d3fe913d88cfa8c8e06da,Mourinho's,299 Manchester Rd,London,Poplar,E14 3HN,Pub,51.492255,-0.006589,0.8545668876764156,1.0,,1162.0311486945661,150.03217337570752,42
430,4fb3a31fe4b0271a4c422277,Custom House Hotel Pub,272 Victoria Dock Rd,London,,E16 3BY,Pub,51.510029,0.026677,0.8512004883026358,1.0,6.2,1913.0381238086593,2594.9669896980304,112
431,4bf565ab94af2d7f5ba83b72,Fox,2 Western Gateway,East Ham,,E16 1DR,Pub,51.508935,0.025185,0.9767287450901824,1.0,6.1,1760.4516498756777,2628.6743389108874,102
432,4b61f545f964a520882d2ae3,The Talbot,109 Mortimer Rd,Dalston,Islington,N1 4JY,Pub,51.542808,-0.07915,0.9691129945345516,2.0,8.3,613.4126440428851,195.68238543232496,142
433,4ace3ee6f964a5205fcf20e3,The Scolt Head,107a Culford Rd,Islington,Islington,N1 4HT,Beer Garden,51.543346,-0.08157,0.9782197455048668,2.0,8.8,585.5410606975383,46.70190128558395,124
434,4b2c184ff964a5207fc124e3,Duke of Wellington,260 Haggerston Rd,London,Hackney,E8 4EP,Pub,51.540191,-0.074881,0.961499573667069,1.0,7.6,943.4601191509644,520.2540328651829,155
435,52a240d711d2761b153af949,Farr's School of Dancing,17-19 Dalston Lane,Dalston,Dalston,E8 3DF,Pub,51.546398,-0.073939,0.975815507336188,1.0,7.5,397.73718441916475,520.2755102608257,221
436,4cc1f77bbde8f04db9559b4b,The Victoria,451 Queensbridge Rd,Dalston,Dalston,E8 3AS,Concert Hall,51.54571,-0.070052,0.9847801473294784,1.0,7.4,670.3097588829369,641.0516803010574,181
437,4ca64d01931bb60cfb0392e2,The Scout Head,,Hackney,,N 1 4,Pub,51.543689,-0.077605,0.9125155506683876,1.0,,521.4235289195531,310.78547281518246,154
438,4cd6b3e5b2a4370452238644,The Brewery Tap,525 Kingsland Rd,Hackney,Kingsland,E8 4AR,Lounge,51.54549,-0.076049,0.610765022994022,1.0,,367.35480413069894,493.5750405219302,204
439,5e5806046f5546000865d7fc,The Crown & Castle,560 Kingsland Rd,London,Kingsland,E8 4AH,Arts and Entertainment,51.545182,-0.075687,0.986483149365626,1.0,,409.6254085909875,496.946003190002,213
440,527d41c511d210b44eafa789,Bobby Jo's Bar,Kingsland High St,London,,,Pub,51.547561,-0.075704,0.4940103717716346,1.0,,229.47354692314838,419.33962904188814,232
441,5b52238cad1789002caa3739,Duke of York,33 Downham Rd,London,Islington,N1 5AA,Pub,51.538946,-0.07848,0.988370196765461,1.0,6.7,1042.5631142899433,283.30399062350097,158
442,4b6b2e67f964a520f6f72be3,The Stags Head,55 Orsman Rd,Islington,Islington,N1 5RA,Beer Garden,51.536357,-0.080698,0.9347850396745891,1.0,6.7,1225.8171478002682,87.96509761501353,168
443,4bcddbb28920b7132669a0dc,The Phoenix,Windsor Walk,London,Camberwell,SE5 8BB,Pub,51.46875,-0.088879,0.9735091160697228,1.0,6.5,1969.9566867614878,561.8553584883715,163
444,4c56cb8ccc96c9b6e169772e,The Fox on the Hill,149 Denmark Hill,London,Camberwell,SE5 8EH,Pub,51.465146,-0.089606,0.978082293904138,1.0,6.6,1814.416269143796,926.7846946034527,125
445,4b9198a0f964a52077c833e3,George Canning,123 Grove Lane,Camberwell,Camberwell,SE5 8BG,Pub,51.468011,-0.086126,0.908385013582082,1.0,6.3,2123.435754404092,731.860846875163,107
446,4b773baef964a5202d8a2ee3,The Bird's Nest,32 Deptford Church St,Deptford,Deptford,SE8 4RZ,Hotel Bar,51.476173,-0.02252,0.9433256764249538,1.0,8.1,797.9124682353915,737.0403952791688,134
447,53937daf498eb0e46cf0882f,Job Centre,120-122 Deptford High St,Deptford,Deptford,SE8 4NS,Pub,51.478351,-0.025767,0.9230643786022804,1.0,8.2,572.6146285692179,433.99072296551134,162
448,4bd46aab7b1876b0faee8886,The Guildford Arms,55 Guildford Grove,London,Greenwich,SE10 8JY,Pub,51.474197,-0.01604,0.9555215938794432,1.0,7.7,1284.8392912905251,1196.6017463407936,125
449,4bdc94beccf52d7f5b6c786d,Ashburnham Arms,25 Ashburnham Grove,London,Greenwich,SE10 8UH,Pub,51.475746,-0.015279,0.947349047856454,1.0,7.0,1300.8378418175946,1214.5875779409507,124
450,4c6bd919599fbe9a3c7e933f,The Little Crown,495 New Cross Rd,London,New Cross,SE14 6TQ,Pub,51.475163,-0.026886,0.9164620423910056,1.0,,542.7542785227334,583.4055443672914,188
451,54da70f4498e72aeca0158f3,Crown & Sceptre,92 Friendly St,London,,SE8 4DR,Arts and Entertainment,51.472031,-0.024403,0.1383997838049398,1.0,,884.5868587332463,968.7336446090843,150
452,4d8cf48bcb9b224be04e6141,Royal Standard,86 Tanners Hill,London,Deptford,SE8 4PN,Arts and Entertainment,51.4736211,-0.0272475,0.8921657246960922,1.0,,619.8676873215165,718.3601450640639,176
453,536418d4498e53ff31fb7598,The Drapers Arms,24-25 High St,Ealing,Ealing,W5 5DB,Bakery,51.51186,-0.305193,0.951211670805746,1.0,8.4,430.63812366509063,347.71983264181006,165
454,4ae389eff964a520659621e3,The North Star,43 The Broadway,Ealing,Ealing,W5 5JN,Pub,51.513748,-0.301944,0.97220915008317,2.0,6.9,130.39910660820803,602.099870148226,163
455,4b803fe2f964a520c36030e3,The Sir Michael Balcon,46-47 The Mall,Ealing,Ealing,W5 3TJ,Pub,51.513537,-0.298406,0.979424194277354,1.0,6.7,239.16673577377526,833.1931418804443,143
456,4b69e804f964a52052bb2be3,The Lodge Tavern,53 The Mall,Ealing,Ealing,W5 3TA,Pub,51.513796,-0.299808,0.9439313953434192,1.0,6.2,148.25218793455227,745.3010518258316,144
457,4cdd99557e2e236a93e3791b,Shanakee,"9-10 Central Buildings, The Broadway",London,Ealing,W5 2NT,Pub,51.514795,-0.302686,0.9854976912790454,1.0,,104.24936765233335,603.1908984490722,153
458,4ac518bbf964a52010a220e3,The Atlas,16 Seagrave Rd,Fulham,Fulham,SW6 1RX,Pub,51.486058,-0.196066,0.970233574533713,1.0,7.4,123.67373310516784,288.4236030077349,130
459,4b6dc985f964a520d28f2ce3,The Pembroke,261 Old Brompton Rd,London,Earls Court,SW5 9JA,Pub,51.4889152,-0.1914946,0.8619589881698436,1.0,6.8,324.9655100246629,348.05713283659435,160
460,4f0750f5e4b00a2750c99c40,The Elm,206 North End Rd,Fulham,West Kensington,W14 9NX,Pub,51.486689,-0.203374,0.9436774593352932,1.0,,481.90165773144787,266.2578245942302,152
461,4d20d8d3bdd7a09320d2f0ce,Pub Golf,Kilburn,London,,NW 6 5,Pub,51.484852,-0.201009,0.8690855042144059,1.0,,485.0005983141492,292.6553539224498,156
462,4c0b9f476071a593ce78e132,Wandle Earlsfield,332 Garratt Lane,London,Earlsfield,SW18 4EJ,Pub,51.442856,-0.189207,0.9800066163143402,1.0,6.8,1190.393493116498,1730.601191646215,51
463,4bc0b88bf8219c74b40ab210,The Jolly Gardeners,214 Garratt Lane,Earlsfield,Earlsfield,SW18 4EA,Pub,51.446898,-0.189594,0.9434165342627236,1.0,5.9,1189.351456267466,1310.9902159156045,100
464,4b104482f964a520b26c23e3,The Palmerston,91 Lordship Lane,East Dulwich,East Dulwich,SE22 8EP,Pub,51.457977,-0.074938,0.9654367466370952,1.0,7.8,2847.306192628585,301.8313617311052,74
465,4afeecdef964a520b73122e3,East Dulwich Tavern,1 Lordship Lane,East Dulwich,Dulwich,SE22 8EW,Pub,51.460403,-0.075109,0.9819123012193588,1.0,7.8,2801.5084480003857,561.2583302255599,76
466,4f64b90fe4b014afeb5fa180,The Great Exhibition,193 Crystal Palace Rd,London,East Dulwich,SE22 9EP,Pub,51.454931,-0.071759,0.9900685394253124,1.0,8.1,3136.6912404014142,326.1332217137262,60
467,5065cb54e4b07cd5b0559922,The Cherry Tree,31-33 Grove Vale,London,East Dulwich,SE22 8EQ,Pub,51.461527,-0.078908,0.9691665773619544,1.0,7.6,2531.3791052799147,700.9475872196499,84
468,4ae0a7edf964a520598121e3,The Bishop,25-27 Lordship Lane,East Dulwich,Dulwich,SE22 8EW,Pub,51.459762,-0.07495,0.963642886763178,1.0,6.5,2819.0042384186436,493.15050421692797,70
469,4c8922677223b1f7326531a8,The Vale Bar,31-33 Grove Vale,East Dulwich,,SE22 8EQ,Pub,51.461587,-0.07878,0.0045522106410835,1.0,,2539.9954277269226,705.28700433269,84
470,4adba631f964a520bf2921e3,Bald Faced Stag East Finchley,69 High Rd,London,East Finchley,N2 8AB,Beer Garden,51.589351,-0.16421,0.9217550938631356,1.0,6.7,234.09132330783365,160.54939771109042,42
471,4ae34f36f964a520339321e3,The Old White Lion,121 Great North Rd,East Finchley,East Finchley,N2 0NW,Pub,51.586635,-0.164487,0.9483251871904428,1.0,5.7,80.48399083606719,455.6132577705688,32
472,4bdc40623904a593a9594d9e,Maddens,130 High Rd,East Finchley,East Finchley,N2 9ED,Pub,51.590749,-0.164368,0.9553794829024188,1.0,5.4,385.9392588864593,39.2075248656194,45
473,4c87aae0821e9eb0d9cc8d89,The Millers Well,419-421 Barking Rd,East Ham,East Ham,E6 2JX,Pub,51.53347,0.056565,0.9958648035373984,1.0,7.9,704.9121914975157,187.32407156456216,196
474,4c9e249b54c8a1cd238e8a4b,Denmark Arms,381 Barking Rd,London,East Ham,E6 1LA,Pub,51.533195,0.054016,0.98455183789098,1.0,,686.9750244357596,120.46101744458379,202
475,4b43b07bf964a52079e625e3,The Plough,42 Christchurch Rd,East Sheen,Mortlake,SW14 7AF,Pub,51.460748,-0.270979,0.9576555882229604,1.0,8.1,2072.0648621306395,2223.639683319619,20
476,4cbae864a33bb1f7dd1891fd,Hare and Hounds,214-216 Upper Richmond Rd West,London,Sheen,SW14 8AH,Pub,51.46505,-0.264809,0.941552783744368,1.0,7.9,1947.8765177467963,2218.6070626981736,26
477,4b575588f964a520063228e3,Pig & Whistle,76-86 B351,Richmond,,SW1 4 7,Pub,51.465003,-0.266943,0.8846315132256396,1.0,6.5,1848.5848102356529,2313.2655686229987,26
478,4bc3294d4cdfc9b662ea9621,Albert Arms,1 Gladstone St,Elephant & Castle,Lambeth,SE1 6EY,Pub,51.497321,-0.103997,0.9490939842792644,1.0,8.3,382.76550498151227,567.3112706622738,201
479,578920f6498e94398f3c3a54,Elephant & Castle,119 Newington Causeway,London,,SE1 6BN,Pub,51.495791,-0.099753,0.9840719221325034,1.0,7.0,134.1689609888354,422.09262260156504,257
480,4b7d9187f964a5203ac72fe3,The Duke of York,47-48 Borough Rd,Southwark,Southwark,SE1 1DR,Pub,51.499203,-0.099558,0.9338042409643044,1.0,7.6,402.82070004928477,236.11287645698633,217
481,4cfd4735c6cca35dabff9532,The Prince of Wales,,Greater London,Lambeth,SE1 6ER,Pub,51.495699,-0.103977,0.9346918521486712,1.0,6.5,268.39347708965823,644.2494073622225,237
482,4bdaa3c02a3a0f476b95abb6,The Rockingham Arms,Metro Central Heights,Elephant & Castle,Waterloo,SE1 6BN,Pub,51.49595,-0.099705,0.9845075738161688,1.0,5.7,151.86315931496574,405.8766980113514,265
483,5d978c9caa7b54000729c2df,Pineapple,14-16 Elephant & Castle,London,,SE1 6TH,Pub,51.492985,-0.099494,0.8871825217476389,1.0,,199.1749266501091,431.26306288919056,233
484,4b1597a5f964a520cfb023e3,Hampton Court Pub,Elephant & Castle,London,,,Pub,51.491893,-0.100891,0.2931982424832612,1.0,,310.16122076698724,375.8634792917244,241
485,4e2ad26562e144b5d3a52394,Crown & Anchor,116 New Kent Rd,Camberwell,Lambeth,SE1 6TU,Pub,51.493998,-0.093935,0.556052296839545,1.0,,458.54195708518034,563.8726676060332,211
486,5ad216ddad910e7bb2c2aa0f,The Rusty Bucket Pub,11 Ct Yard,Eltham,Eltham South,SE9 5PR,Pub,51.450466,0.052246,0.98370150171698,1.0,8.5,6509.847411150118,114.77944950964675,96
487,4d727fab3815f04da15b8e67,Eltham GPO,4 Passey Pl,Eltham,Eltham,SE9 5DQ,Pub,51.450435,0.053964,0.9720973250520686,1.0,7.2,6575.137905339116,163.74603861486787,99
488,4bbf7259b083a5937974a3e9,Park Tavern,45 Passey Pl,Eltham,Eltham,SE9 5DA,Beer Bar,51.449694,0.054335,0.9643348041431176,1.0,6.7,6658.665588741941,244.04016385825625,90
489,4c0fe69c3ce120a11737071c,The Rising Sun,189-191 Eltham High St,Eltham,Eltham,SE9 1TS,Pub,51.450903,0.058363,0.9830864640459228,1.0,6.6,6698.74043944978,423.4455737578692,80
490,4c87aaed821e9eb0e0cc8d89,The Bankers Draft,80 Eltham High St,Eltham,Eltham,SE9 1BW,Pub,51.450563,0.05322,0.9307243932327218,1.0,5.7,6535.834755261825,120.89371491923542,99
491,4ee4a91e8b81bab283a274e6,The White Hart,2 Eltham High St,London,Eltham,SE9 1DA,Pub,51.451186,0.049029,0.9699656603966992,1.0,6.0,6327.780851845896,231.13471906847093,86
492,5b8a7ad0f00a70002cf3e7f6,The Conductor,1 Fleet Pl,Farringdon,,EC4M 7RA,Pub,51.516223,-0.103488,0.9490171045703822,1.0,7.2,229.59412223039428,105.38542385606851,118
493,4ada5fc2f964a520ff2121e3,The Bleeding Heart Tavern,7 Bleeding Heart Yard,London,,EC1N 8SJ,Pub,51.51921,-0.106797,0.042698524375527,1.0,6.0,169.6791868622635,365.55441353435936,141
494,4b194142f964a520fcd923e3,Sir Christopher Hatton,4 Leather Lane,London,Clerkenwell,EC1N 7RA,Pub,51.518243,-0.108945,0.9695929102930282,1.0,5.3,153.1237228753635,445.41105469841756,143
495,541a9a95498e11da4a282f03,Finch's,12A Finsbury Square,London,The City,EC2A 1AN,Beer Bar,51.521724,-0.087319,0.9342562004650058,2.0,6.5,404.853804499149,668.2061170232259,191
496,4cb4c170db32f04dc910e04d,Heron,,,,,Pub,51.519478,-0.089886,0.5048224544662452,1.0,,170.8652225056969,363.4760671760791,126
497,4ae346baf964a520c09221e3,The Masque Haunt,168-172 Old St,London,The City,EC1V 9BP,Pub,51.525094,-0.090488,0.9824388107407942,1.0,5.7,238.8051101580182,911.7016790107466,272
498,4ad772f4f964a520a60a21e3,The Flying Horse,52 Wilson St,London,The City,EC2A 2ER,Pub,51.520369,-0.08503,0.9645840807749476,2.0,5.8,347.0779186996006,457.52086758089627,245
499,60e07a1c0e501b1ba85ff2a5,Gibney's,,,,,Pub,51.524704,-0.087817,0.9266497686619668,,,165.49246460254378,931.4802020040628,312
500,4acfbf88f964a520bad520e3,The Angel,73 City Rd,Islington,The City,EC1Y 1BD,Pub,51.5246677,-0.0873704055641823,0.9534644792448084,1.0,5.3,168.4374032708312,926.2757493396491,340
501,4ace05ccf964a520f3cd20e3,The Windmill,27 Tabernacle St,Islington,,EC2A 4DE,Pub,51.52319375,-0.086456749914089,0.9175034129931368,2.0,5.1,339.95735239746415,755.8012996126903,290
502,4afec4edf964a520433022e3,The Rack & Tenter,45 Moorfields,London,The City,EC2Y 9AE,Pub,51.518742,-0.088677,0.9142045745756472,1.0,4.8,63.88781988709116,380.5081081932231,151
503,4b314798f964a520cc0325e3,The Faltering Fullback,19 Perth Rd,Finsbury Park,Finsbury Park,N4 3HB,Beer Garden,51.568457,-0.108247,0.9687076287968092,1.0,8.8,432.88637342027397,360.17235899895314,198
504,52dd9839498e80be68200fce,W B Yeats,20 Fonthill Rd,Finsbury Park,Finsbury Park,N4 3HU,Pub,51.56636,-0.111541,0.9603976311730912,1.0,8.0,449.4062199395593,268.8969365666207,259
505,4c6c261bd0869521e4e103ea,The Blackstock,284 Seven Sisters Rd,Finsbury Park,Finsbury Park,N4 2HY,Arts and Entertainment,51.564694,-0.104213,0.9721835235135424,1.0,6.8,89.93211649002038,275.68864995710004,233
506,4cbb69d0f50e224bd892f9fb,The Twelve Pins,263 Seven Sisters Rd,Finsbury Park,Finsbury Park,N4 2DE,Pub,51.564835,-0.104678,0.9755429338228784,2.0,6.2,54.42287455449678,241.10601041625665,228
507,4adb7670f964a520c32721e3,Worlds End Finsbury Park,21-23 Stroud Green Rd,Finsbury Park,Finsbury Park,N4 3EF,Pub,51.566994,-0.108313,0.974009999021531,1.0,6.1,299.7703512115408,197.8645041290849,231
508,4be5a073910020a1fd35d314,The Railway,11 Wells Terrace,Islington,Finsbury Park,N4 3JU,Arts and Entertainment,51.565279,-0.107982,0.7874182861882109,1.0,,179.5041875715293,11.13636043221727,249
509,61787141ddcd6e085d4385ce,The Plimsoll,,London,,N4 2QW,Pub,51.561998,-0.105101,0.9779238751100776,1.0,,332.3626937506894,283.5555006697475,254
510,4c474d961ddec9280fec9c32,Park Tavern,164 Tollington Park,London,Finsbury Park,N4 3AD,Pub,51.568049,-0.111245,0.9170561128687312,1.0,,527.261255359374,382.0327239448505,141
511,5c5215468c35dc002cee60f4,Lore of the Land,4 Conway St,London,Fitzrovia,W1T 6BB,Pub,51.522025,-0.139527,0.9629300021899068,1.0,7.8,292.3806249232218,409.0822943292039,177
512,4b0edaebf964a520f05b23e3,Smugglers Tavern,28 Warren St,London,Fitzrovia,W1T 5ND,Pub,51.523688,-0.140989,0.9297435945224372,1.0,7.7,207.7108078520289,587.2659885330329,172
513,4ace271cf964a520bdce20e3,The Grafton Arms,72 Grafton Way,London,Fitzrovia,W1T 5DU,Pub,51.523262,-0.1385,0.9438405375056494,1.0,6.7,140.41358559600343,423.35610632271613,184
514,4ad73549f964a520fd0821e3,Prince of Wales Feathers,8 Warren St,London,Fitzrovia,W1T 5LD,Pub,51.524233,-0.13855,0.964141440026838,1.0,6.6,43.01953611988492,505.5763465748148,182
515,4b2fb86ef964a52091ee24e3,The Crown & Sceptre,86 Great Titchfield St,Fitzrovia,Bloomsbury Fitzrovia,W1W 6SD,Pub,51.519319,-0.140713,0.9676918847643056,2.0,6.8,458.7787664268379,461.46977204047835,244
516,4c424d876c1a952116c8b96a,The Albany,240 Great Portland St,London,Fitzrovia,W1W 5QU,Dive Bar,51.523228,-0.143925,0.9782593502033816,2.0,6.7,75.89892445497584,741.3689323299063,147
517,4b2f868af964a5200dec24e3,The One Tun,58-60 Goodge St,Fitzrovia,Fitzrovia,W1T 4ND,Beer Bar,51.519126,-0.136709,0.9644023650994078,2.0,6.7,228.400027810528,190.17443581620162,345
518,4ace17cdf964a5205fce20e3,The Green Man,36 Riding House St,Fitzrovia,Fitzrovia,W1W 7EP,Pub,51.518944,-0.139476,0.9390646768023632,2.0,6.6,395.94307690112277,381.48331648944963,263
519,4ad4b280f964a520b5e820e3,The Court,108A Tottenham Ct Rd,London,Fitzrovia,W1T 5AA,Pub,51.523067,-0.136878,0.970867249709954,1.0,5.7,180.3819045238668,332.34759362864736,163
520,4ad5c7c6f964a520770321e3,George & Dragon,151 Cleveland St,,Fitzrovia,W1T 6QN,Pub,51.52299,-0.142055,0.9160776438465948,1.0,6.0,167.3874585627424,612.3264093902256,174
521,4ad5dbfdf964a520c50321e3,Tower Tavern,2 Clipstone St,London,Fitzrovia,W1W 6BA,Arts and Entertainment,51.520747,-0.142593,0.932860717264387,1.0,5.9,364.3848606033879,591.9302133625814,160
522,4b958124f964a52054a634e3,Crown & Anchor,137 Drummond St,Euston,Camden,NW1 2HL,Pub,51.526905,-0.136926,0.9682696474249955,1.0,6.3,145.6625711357794,722.9951454092886,212
523,4ace19d2f964a5206fce20e3,Carpenters Arms,68-70 Whitfield St,London,Fitzrovia,W1T 4EY,Pub,51.521839,-0.136525,0.9546176748780408,1.0,5.7,200.9831034843531,216.53748815247147,186
524,4ae1bddcf964a520158721e3,The King & Queen,1 Foley St,Fitzrovia,Fitzrovia,W1W 6DL,Pub,51.520224,-0.138698,0.9599689685538694,1.0,5.9,299.6162676401522,325.9134170448919,221
525,4b4745bcf964a520ea2d26e3,The Masons Arms,58 Devonshire St,London,Marylebone,W1W 5EA,Pub,51.522243,-0.144157,0.6858182563682026,1.0,6.1,185.8131549658093,721.9432549784613,138
526,4ad7a555f964a520350d21e3,The Northumberland Arms,119 Tottenham Ct Rd,London,Fitzrovia,W1T 5AW,Pub,51.523533,-0.137327,0.9770362639257107,1.0,5.3,120.09079420695818,392.54497651492454,170
527,4b06ca1ff964a52045f022e3,The Yorkshire Grey,46 Langham St,Fitzrovia,Fitzrovia,W1W 7AX,Pub,51.518856,-0.141361,0.9311973199267546,1.0,6.0,410.03582206737127,511.6923040652209,249
528,4adc8293f964a520c62c21e3,The Ship,134 New Cavendish St,London,Marylebone,W1W 6YB,Pub,51.520342,-0.140824,0.9690244663849296,1.0,5.6,444.7075669598617,470.746872854809,190
529,4c10f0436b7e2d7fb55e2835,The Square Tavern,26 Tolmers Square,London,Camden Town,NW1 2PE,Pub,51.526387,-0.137608,0.9146076106252417,1.0,5.6,145.3367505004757,683.424361340735,172
530,4c17674959cc2d7fda875287,Green Man,383 Euston Rd,Euston,Camden,NW1 3AU,Pub,51.523695,-0.143183,0.9763769621798426,2.0,5.6,59.46545704120125,717.2382075933506,162
531,4b1ee494f964a520292124e3,Horse & Groom,128 Great Portland St,Fitzrovia,Marylebone,W1W 6PS,Pub,51.519891,-0.142381,0.936851473061816,1.0,5.7,460.21720631321176,577.0959885578253,178
532,4baa3de8f964a520de563ae3,The Stags Head,102 New Cavendish St,London,Marylebone,W1W 6XW,Pub,51.519907,-0.143195,0.9710652732025292,1.0,5.8,448.3319188810603,618.6471704665539,156
533,5b22db924febd5002c67d271,The Queen Charlotte,,London,,W1T,Pub,51.519481,-0.136035,0.8517875697159178,1.0,,167.7007593229605,137.3104046166448,299
534,4b0c0652f964a520d53523e3,Duke of York,47 Rathbone St,Fitzrovia,Fitzrovia,W1T 1NW,Pub,51.518728,-0.135943,0.953480787061844,1.0,5.7,233.62388504070125,160.85860843214937,353
535,522b73e011d286c02e818fbb,Forest Tavern,173 Forest Lane,London,Forest Gate,E7 9BB,Pub,51.549327,0.022027,0.934326091109444,1.0,8.3,1773.0230725532363,220.218921267783,148
536,519e7abb498efb78cce17407,Fox & Hounds,178 Forest Lane,London,Forest Gate,E7 9BB,Pub,51.54998,0.024533,0.9407047772585162,1.0,,1768.4670297690695,135.31902304845462,157
537,4c87aaff821e9eb0f0cc8d89,The Hudson Bay,1-5 Upton Lane,London,Forest Gate,E7 9PA,Arts and Entertainment,51.545729,0.026148,0.9743617819318706,1.0,5.7,1288.9275464476739,350.76839805858185,195
538,4cf7f5f7665854815498d198,Sylvan Post,24-28 Dartmouth Rd,Forest Hill,Forest Hill,SE23 3XU,Pub,51.438245,-0.054562,0.9686843319153298,1.0,8.6,4293.65477340467,2436.7245406526117,98
539,4afee0cbf964a520233122e3,The Capitol,11-21 London Rd,Forest Hill,Forest Hill,SE23 3TW,Pub,51.43905,-0.054713,0.9653621966163608,1.0,6.2,4208.9653666826125,2360.5378248751285,79
540,4afee29bf964a5203f3122e3,All Inn One,53 Perry Vale,Forest Hill,Forest Hill,SE23 2NE,Beer Garden,51.438392,-0.052553,0.9485884419511604,1.0,6.0,4248.174358436766,2513.2143177523294,84
541,4ada50bff964a520452121e3,The Foresters,53 Perry Vale,London,,S E23,Pub,51.438396,-0.052459,0.457883897661459,1.0,,4246.461584981802,2517.1681915564495,83
542,4adba663f964a520c22921e3,Clissold Arms,105 Fortis Green,Muswell Hill,East Finchley,N2 9HR,Pub,51.590637,-0.15508,0.9248628978524934,1.0,5.3,776.8132427454567,59.127464220479,18
543,611a06ecee061a01b5c8c25b,The Village Green,122 Fortis Green Rd,London,Muswell Hill,N10 3HN,Pub,51.590497,-0.146971,0.9574785319237168,1.0,,1292.4552062125522,504.34101745173245,47
544,4b13ef42f964a520a19a23e3,The White Horse,1-3 Parsons Green,Greater London,Fulham,SW6 4UL,Beer Bar,51.474384,-0.200304,0.9844516613006185,2.0,8.9,132.9097933794337,1440.7833914926564,63
545,4ac518c1f964a520dda320e3,Octoberfest Pub,678-680 Fulham Rd,London,Fulham,SW6 5SA,Pub,51.4749,-0.206581,0.8804683605052628,1.0,7.3,313.81903144207297,1274.3894005932166,82
546,4be591b8bcef2d7fbbf103e5,Duke on the Green,235 New Kings Rd,Fulham,Fulham,SW6 4XG,Pub,51.472633,-0.199534,0.9709744153647591,1.0,7.5,304.621019430837,1330.5886947856302,52
547,4e2de3091838f1c552b4efe9,The Fulham Pub,,Hammersmith,,,Pub,51.476024,-0.205718,0.8491643408613323,1.0,,284.10711287972686,1327.033742633489,92
548,4aeb5466f964a52003c121e3,Aragon House,247 New Kings Rd,London,Fulham,SW6 4XG,Beer Garden,51.472542,-0.200321,0.9419861057398856,1.0,6.0,286.2287974659657,1285.1767837497364,57
549,4aec9dcff964a5207cc921e3,On the green,New kingd Rd. Parsons green,London,,,Pub,51.472538,-0.200416,0.7999939428108154,1.0,,283.94684689964714,1280.3110606544094,57
550,4bae273cf964a520c98a3be3,The Paxton,255 Gipsy Rd,Thurlow Park,West Norwood,SE27 9QY,Pub,51.427447,-0.087998,0.9595496246872394,1.0,6.9,4325.394707900917,2884.724790227007,50
551,5ce966a1c03635002cd76fc4,The Great Southern,79 Gipsy Hill,Upper Norwood,West Norwood,SE19 1QH,Pub,51.424175,-0.083861,0.9685981334538558,1.0,,4779.2344804616005,2875.7348663456287,71
552,550056df498e1557d9bc88bb,The Colby Arms,132 Gipsy Hill,London,Gipsy Hill,SE19 1PW,Pub,51.424899,-0.083421,0.9063022723778196,1.0,,4722.037117100308,2951.4286879922333,56
553,4edfccf2b6346b119e7fba1e,The Railway Bell,14 Cawnpore St,London,Gipsy Hill,SE19 1PF,Pub,51.422403,-0.082377,0.8920375918479553,1.0,,5001.51740174888,2667.1907173547647,99
554,4fcd1096e4b06c8db47f0731,The Two Towers,,,,,Pub,51.427125,-0.089108,0.9144654996482172,1.0,,4324.591860422176,2812.4102190914696,51
555,4b96a7bdf964a520d3db34e3,The Refectory,911 Finchley Rd,London,Golders Green,NW11 7PE,Arts and Entertainment,51.572745,-0.195864,0.9604092796138308,1.0,5.8,125.16446158778892,170.06928197504382,98
556,4b2d0c04f964a52008cd24e3,The Gate Lodge,622 Finchley Rd,Barnet,Golders Green,NW11 7RR,Pub,51.57094,-0.195126,0.9459838506017584,1.0,,186.36886770557678,263.56060523165564,95
557,4b2e6888f964a520a3df24e3,The Southampton Arms,139 Highgate Rd,London,Kentish Town,NW5 1LE,Pub,51.55606,-0.146228,0.9846986082443004,2.0,9.1,418.5274377754439,541.8271990985422,83
558,4ac518dbf964a520eba820e3,Trafalgar Tavern,Park Row,Greenwich,Greenwich,SE10 9NW,Lounge,51.484464,-0.004294,0.9914220882392684,2.0,8.0,1871.3766289757532,590.3888801664889,37
559,4b9ae558f964a520a7e035e3,Plume of Feathers,19 Park Vista,Greenwich,Greenwich,SE10 9LZ,Pub,51.48197,-0.000874,0.9393885034549276,1.0,7.8,2090.195491396281,936.0973268534769,33
560,4b43bfa7f964a52057e825e3,The Gipsy Moth,60 Greenwich Church St,London,Greenwich,SE10 9BL,Beer Garden,51.48227,-0.009748,0.9770828576886698,2.0,7.8,1758.1013949710862,834.442251378997,100
561,4ce7fbe3d99f721eac8cad73,Greenwich Tavern,1 King William Walk,London,Greenwich,SE10 9JH,Pub,51.479844,-0.007202,0.9811668010120164,1.0,7.2,1868.132880196904,1078.878750646227,102
562,4b645d57f964a52084ad2ae3,Coach & Horses,13 Greenwich Market,London,Greenwich,SE10 9HZ,Pub,51.481547,-0.009,0.9792075332795952,1.0,7.1,1784.8046577343634,902.31793204878,116
563,4ad0c5dcf964a520b4d920e3,Kings Arms,16 King William Walk,London,Greenwich,SE10 9JH,Beer Garden,51.480781,-0.008003,0.957380685021503,1.0,6.8,1832.0177821161797,977.9706991069885,117
564,4b5494c1f964a5200ac127e3,The Yacht,5 Crane St,Greenwich,Greenwich,SE10 9NP,Pub,51.484648,-0.003816,0.9494247999962724,1.0,6.6,1842.3228468769794,581.6807135499415,38
565,4bae253ef964a520c1893be3,Ye Olde Rose & Crown Greenwich,1 Crooms Hill,London,Greenwich,SE10 8ER,Gay Bar,51.479438,-0.007815,0.9267918796389916,1.0,6.4,1819.8921600815977,1125.9139459938258,103
566,4ba529bef964a52025e638e3,The Gate Clock,275 Creek Rd,London,Greenwich,SE10 9RB,Pub,51.481517,-0.010847,0.9899380768890276,1.0,6.3,1660.722731137308,935.8487723370807,127
