,fsq_id,name,address,locality,neighborhood,postcode,category,latitude,longitude,popularity,price,rating,distance_metro,distance_police,number_of_crimes
0,4bc1e42eabf49521c690c193,The Black Horse,92 Wood St,London,Barnet,EN5 4BW,Pub,51.653075,-0.206657,0.9395506925852636,1.0,8.1,904.7221783952057,390.28142268413694,30
1,4b995bccf964a5209f7535e3,Ye Olde Mitre Inne,58 High St,Hertfordshire,Barnet,EN5 5SJ,Pub,51.652979,-0.199367,0.9827680130368992,1.0,7.6,443.9459654988773,119.56110587743017,45
2,4bb4da3fa7059521b8cc1bce,The Arkley,Barnet Rd,Barnet,Barnet,EN5 3EP,Pub,51.652533,-0.219573,0.9873751600512164,1.0,7.7,1767.1738669776782,1215.8159628743226,2
3,4dc436e5ae608779d11bd561,Railway Tavern,3 East Barnet Rd,Barnet,Barnet,EN4 8RR,Pub,51.650059,-0.174692,0.9508951228029332,1.0,7.4,1343.2480489568218,1149.6212554108404,64
4,4d72b1e78e12b1f793863f05,The Kings Head,84 High St,Barnet,Barnet,EN5 5SN,Pub,51.653499,-0.200979,0.3777767431032476,1.0,6.6,568.2927593999508,98.11283449358235,40
5,4c0bab78ffb8c9b6e9886d61,The Monken Holt,,,Monken Hadley,,Pub,51.658291,-0.201368,0.246145966709347,1.0,6.8,985.0319775469469,313.70780481876744,22
6,4c48afa4fbafc9289b04eed9,The Green Dragon,2 St Albans Rd,Hertfordshire,Barnet,EN5 4RE,Pub,51.674789,-0.216312,0.9721663862841196,1.0,7.2,3089.097301598794,2334.170121499875,0
7,4db2cbb5cda1c57c8236c09f,The Red Lion,31 High St,Barnet,,EN5 5UW,Pub,51.652453,-0.199044,0.967386800139681,1.0,6.1,393.26905657023894,71.39873342725784,44
8,4acf9e8df964a52000d520e3,The Orange Tree,7 Totteridge Village,Totteridge,Totteridge,N20 8NX,Pub,51.629934,-0.197419,0.9514980793854032,1.0,6.5,1259.998884265972,2485.475467501432,1
9,4cdef85ef8a4a1430711dbbc,The Misty Moon,148 High St,Barnet,Barnet,EN5 5XP,Pub,51.655632,-0.20161,0.3776021417762775,1.0,,756.5425411295529,71.87279731336257,38
10,4ad6f668f964a520700821e3,The Lord Nelson,14 West End Lane,London,Barnet,EN5 2SA,Pub,51.652495,-0.209858,0.89875451053428,1.0,,1103.7075496407697,604.4083235302644,26
11,4ceee8c87db3224b3c092a2e,The White Lion,50 St. Albans Rd,Barnet,Barnet,EN5 4LA,Pub,51.658212,-0.204264,0.4455476661622628,1.0,,1092.9962452679845,312.73663621235806,22
12,4c17db06fe5a76b0602f0115,Queens Arms,Great North Rd,New Barnet,Barnet,EN5 1AB,Pub,51.64669,-0.188042,0.8880013968106157,1.0,5.6,609.0855924052835,929.066928842225,45
13,4d85f8b4f9f3a1cd9bfad564,The Weaver Pub,,Hertfordshire,,EN5 1AW,Pub,51.645592,-0.185872,0.8782353625887557,1.0,,801.1446029513459,1122.0673768145052,36
14,4bab3463f964a52050993ae3,The Railway Bell,13 East Barnet Rd,Hertfordshire,Barnet,EN4 8RR,Pub,51.650462,-0.172977,0.9352252357117914,1.0,5.6,1460.0965996654863,1097.002704283349,67
15,4c4487a1dcd61b8dfe747b56,Prince of Wales,2 Church Hill Rd,Barnet,Barnet,EN4 8TB,Pub,51.642101,-0.163195,0.9672191828657898,1.0,5.7,1449.2248798999624,134.9859173763664,41
16,4c3889183849c928a797bfb1,The Alexandra,133 East Barnet Rd,Barnet,Barnet,EN4 8RF,Pub,51.647579,-0.167478,0.2715958561285065,1.0,,1394.6492603241784,607.9353139648898,49
17,4c08053e6071a5936899db32,Kings Head,65 Bexley High St,Bexley,Bexley,DA5 1AA,Pub,51.441903,0.149824,0.9516005121638924,1.0,6.7,11061.737109314008,1673.630808145107,22
18,4cbb68b59552b60cbde6df8b,The Traveller's Home,The Travellers Home,Bexleyheath,Bexley,DA7 5AR,Pub,51.462432,0.152058,0.946253055523222,1.0,7.1,8829.474268540353,646.4352846761523,28
19,4c48b1f49e3e2d7fe72aca47,The Prince Albert,2 Broadway,Kent,Bexleyheath,DA6 7LE,Pub,51.455431,0.152618,0.8890862530555232,1.0,6.8,9608.915627933324,303.40361852267375,86
20,4b6dd03ff964a5204c922ce3,The George,74 High St,Bexley,,DA5 1AJ,Pub,51.441873,0.150353,0.9505971365382376,1.0,6.2,11070.509366352222,1678.6505249495503,22
21,4c96019e6b35a1435df729dc,Yacht,167 Long Lane,Bexleyheath,Bexleyheath,DA7 5AE,Pub,51.466222,0.144872,0.9660365498777792,1.0,6.8,8336.781810470233,1070.0038117141128,15
22,4c432c00cc410f4730caad61,William Camden,Ave Rd,Bexleyheath,Bexleyheath,DA7 4EQ,Pub,51.462077,0.131824,0.9428588057269236,1.0,6.6,8705.6089637565,1318.1798442419101,44
23,4d1a64e59aa55481dbd2c5e0,Railway Tavern,38 Bexley High St,Kent,Bexley,DA5 1AH,Pub,51.441267,0.148887,0.9034873705040158,1.0,,11122.339687551206,1743.327133791454,23
24,4adc754ff964a5206d2c21e3,The Furze Wren,6 Market Pl,Bexleyheath,Bexleyheath,DA6 7DY,Pub,51.456671,0.146431,0.9956908392503784,1.0,6.1,9402.896077084299,178.87774566367867,123
25,4c585c4412f0d13a963b09ad,The Coach and Horses Bexley,7-56 N Cray Rd,Bexley,,DA 5 3,Pub,51.438428,0.15229,0.8951088348271447,1.0,,11469.692011732794,2071.7755059748347,15
26,4c38619eae2da593c98600c6,The Kings Arms,156 Broadway,Bexleyheath,Bexleyheath,DA6 7DW,Pub,51.456949,0.142945,0.9587754626935164,1.0,6.1,9339.32019054274,417.7944266638556,151
27,4c9f404b0df79c74e80c231a,The Crayford Arms,37 Crayford High St,Crayford,Crayford,DA1 4HH,Pub,51.452565,0.177089,0.9038924455825864,1.0,6.2,10154.039918082797,2007.959158628736,66
28,4cfbd4bcdccef04d4f42bd9c,The Three Blackbirds,Blendon Rd,Bexley,Bexley,DA5 1BX,Pub,51.448248,0.122272,0.8989593760912583,1.0,6.1,10069.263585443374,2087.7957549177686,24
29,4acfd0e5f964a5203fd620e3,The Anchor,Bridgen Rd,Bexley,Bexley,DA5 1JE,Pub,51.445521,0.132666,0.9754999417995576,1.0,,10547.35038827456,1700.2433655334287,7
30,4bf6a8c15efe2d7fcd876734,Golden Lion,258 Broadway,Greater London,Bexleyheath,DA6 8BE,Beer Garden,51.458035,0.13575,0.9629891747177278,1.0,5.8,9170.210125200747,924.2768486505722,105
31,4c80f305d34ca14375621d80,Coach House,40 Watling St,Bexleyheath,Bexleyheath,DA6 7QG,Pub,51.45509,0.154694,0.9698032825049472,1.0,,9655.261540723648,446.7253289595141,52
32,4d7a945f7ea26ea8989ac68f,Robin Hood & Little John,78 Lion Rd,Bexleyheath,Bexleyheath,DA6 8PF,Pub,51.454314,0.135942,0.9372878593877312,1.0,,9583.864879298533,949.2368275527914,86
33,4c87aa51821e9eb051cc8d89,The Wrong Un,234-236 Broadway,Bexleyheath,Bexleyheath,DA6 8AS,Pub,51.457841,0.137459,0.9383750436503318,1.0,5.6,9200.990856905071,804.0853222564829,114
34,4e7e1139b8038046341bbeaf,Albany Public House,13 Steynton Ave,Bexley,Bexley,DA5 3HN,Hotel Bar,51.436156,0.126302,0.8957280875334652,1.0,,11114.200767661212,2795.0971149427073,22
35,4d4550223616b60c346fedc2,The Rose,179 Broadway,Bexleyheath,Bexleyheath,DA6 7ES,Pub,51.457063,0.140639,0.952573623559539,1.0,,9308.251062721456,577.715856141057,150
36,4ebd9cedd3e3700a5a84c614,The Jolly Millers,111 Mayplace Rd West,Bexleyheath,Bexleyheath,DA7 4JR,Pub,51.458207,0.151849,0.4544965661739029,1.0,,9297.969394196874,243.6037365435258,90
37,4bae78d2f964a520aab63be3,The Royal Oak,66 Mount Rd,Bexleyheath,Bexleyheath,DA6 8JS,Pub,51.452498,0.127885,0.9534466301943896,1.0,,9727.830030815932,1542.7075454418919,11
38,4ed01d79cc219860f71d8b6c,Duke of Wellington,92 London Rd,Crayford,Crayford,DA1 4BT,Pub,51.451945,0.17406,0.3529693865673379,1.0,,10178.471603715894,1824.8876057384944,56
39,4b770f9df964a52034792ee3,Bear & Ragged Staff,2 London Rd,Crayford,Crayford,DA1 4BS,Pub,51.451845,0.177927,0.9192736584798044,1.0,5.5,10244.813509667541,2084.6936742437474,72
40,4beb12306295c9b6ab3e8708,The One Bell,170 Old Rd,Dartford,Crayford,DA1 4DY,Pub,51.453809,0.174652,0.986574321964847,1.0,,9983.467589180675,1812.967555257816,67
41,4c2f8f2216adc92842c7bd9c,The Volunteer,46 Church Rd,Bexleyheath,Bexleyheath,DA7 4DQ,Pub,51.459645,0.137923,0.9369945291584216,1.0,,9003.96835599219,822.4789886823229,107
42,54f236d4498e171106bd927c,Dukes Head,53 Crayford High St,Crayford,Crayford,DA1 4EJ,Pub,51.453048,0.177019,0.9573902921662204,1.0,,10100.55252054065,1990.8683877454694,66
43,541342a5498ebde900f0dad2,Penny Farthing,3 Waterside,Crayford,Crayford,DA1 4JJ,Pub,51.452242,0.178353,0.9903550226981724,1.0,,10208.292337373265,2101.68793824792,72
44,5f551d195d31e348dde989bb,The Long Haul,149 Long Lane,Bexleyheath,,DA7 5AE,Pub,51.465891,0.145949,0.9808939587940868,1.0,,8384.974702743437,1016.60135304826,16
45,5ac92c1879f6c74413a55df2,The Bird & Barrel,100 Barnehurst Rd,Barnehurst,Bexley,DA7 6HG,Pub,51.465836,0.158163,0.9612594575718776,1.0,,8484.933530729717,1175.8314809058227,26
46,5f79e3eb624cd668faeeecdf,The White Horse,4 Wembley Park Blvd,Tokyngton,,HA9 0HP,Pub,51.558346,-0.280355,0.9762146432312886,1.0,6.8,580.7327206373186,572.6615399419749,165
47,4bd7c86a304fce72600534ab,The Fusilier,Harrow Rd,London,Sudbury,HA20 2HA,Pub,51.561739,-0.3319285,0.9605191479455244,1.0,7.2,595.956600848535,2138.8484203871367,30
48,4bcf581dcaff9521a7fdccf0,The Torch,1-5 Bridge Rd,Wembley,Wembley,HA9 9AB,Pub,51.56493,-0.277282,0.9589873123035736,1.0,5.7,230.05473531075276,208.3798559307727,111
49,4ccd8719063a721e1416959a,The Crock of Gold,23 Bridge Rd,Wembley,Wembley,HA9 9AB,Pub,51.564416,-0.277869,0.9552229076940985,1.0,,162.53111384537428,138.34050349983843,113
50,4ae44c36f964a520e89921e3,J J Moon's,397 High Rd,Wembley,Wembley,HA9 6AA,Pub,51.553489,-0.292652,0.9868094517518332,1.0,6.1,331.41289814793123,919.328048323116,163
51,4cffcc692685a35d6a5cc590,The Parish,120 Wembley Park Dr,Wembley,Wembley,HA9 8HP,Pub,51.561744,-0.282882,0.985580258409964,1.0,5.6,294.7272059855122,321.93437758452046,159
52,5741bbd8cd105b73f950aa7d,The Corner House,313 Harrow Rd,Wembley,Wembley,HA9 6BA,Pub,51.552946,-0.285828,0.858684670003492,1.0,,713.8083143500776,1010.7951673239781,93
53,4c8a558b52a98cfa95862be9,Mannions,313 Harrow Rd,Wembley,Wembley,HA9 6BA,Pub,51.55295,-0.285733,0.0132161564427889,1.0,,720.2574213425441,1004.6416144091346,93
54,4d449274bf61a1cdeb550aac,The George,234 Church Lane,London,Kingsbury,NW9 8SN,Pub,51.572956,-0.261959,0.9217855895704808,1.0,,1614.9363108003308,912.1997237253645,57
55,4b770d4ff964a52058782ee3,Wishing Well,175 Church Lane,Kingsbury,Kingsbury,NW9 8JS,Pub,51.573687,-0.262525,0.70287975788616,1.0,,1623.7312528724385,833.7619764967089,60
56,4c02ef24f56c2d7f0f341c66,The Fleadh,278 Preston Rd,Brent,Harrow,HA3 0QA,Pub,51.572889,-0.294383,0.2801070888138749,1.0,,119.19585958372754,1453.3096234833704,30
57,4c87ab49821e9eb039cd8d89,J J Moons,553 Kingsbury Rd,Kingsbury,Kingsbury,NW9 9EL,Pub,51.584604,-0.280033,0.9920568036317076,1.0,5.7,95.2925328369254,208.55241704436074,64
58,4c07ee35ffb8c9b64c6a6761,McDonagh's Bar,2 Slough Lane,London,Kingsbury,NW9 8QL,Pub,51.578796,-0.263187,0.9056175066930509,1.0,,1235.953192857472,289.88358244567826,39
59,4b8e8e25f964a520722833e3,Ox and Gate,Coles Green Rd,Greater London,,NW2 7HS,Pub,51.566051,-0.247711,0.5301198929111861,1.0,,1323.3072924539767,1187.789430817247,57
60,4ead75f0f7906795c3b30f23,Innisfree Pub,,London,,,Pub,51.546125,-0.273271,0.9100919566988708,1.0,,299.41436126918313,475.33454214864076,49
61,4cf6644bc020b60caadb1f75,Hennessy's,,,,,Pub,51.585062,-0.27948,0.6570364334768944,1.0,,104.7531998472439,266.91932318891526,70
62,4c797b14df08a1cdcceada5d,Roisin Dubh,1 Fryent Way,London,Kingsbury,NW9 9ER,Pub,51.584564,-0.280883,0.6527016645326504,1.0,,148.91577789940663,155.50112169369388,63
63,4daf27650437710b8143fb62,The Burren,174 Church Rd,London,Willesden,NW10 9NH,Pub,51.547169,-0.249993,0.9959422651612152,1.0,,790.1480520548419,660.1186577170976,125
64,4e0f6724fa76d62f44528a10,Panther's the Pub,4 Ealing Rd,Wembley,Alperton,HA0 4PJ,Pub,51.541899,-0.297377,0.0815388196950296,1.0,,246.29634921678294,1222.605085967019,86
65,4e3eda2cd4c058f9dc17ec44,O'Hanlons,210 West Hendon Broadway,Barnet,Hendon,NW9 7EE,Pub,51.577327,-0.239125,0.1536584798044465,1.0,,1105.6585187409198,1596.2889735256215,50
66,4da490acb521224bdd6435ee,The Swan,789 Harrow Rd,Wembley,Wembley,HA0 2LP,Pub,51.555749,-0.316871,0.9226423000814806,1.0,,539.378547292102,903.4204701902752,66
67,585adb7b9526bc19710ce842,Whelans,341 Oxgate Lane,London,,NW2 7HS,Pub,51.566844,-0.233106,0.9794273076475382,1.0,,1643.5005317940888,2200.7171227756075,67
68,510c650be4b0be8b2fb89966,Delaney's Irish Pub,Kenton Rd,Harrow on the Hill,,,Pub,51.586428,-0.299849,0.5738074729367943,,,1274.348318917571,1218.4570884593097,39
69,4c8d2503509e370492a43955,Black Horse,Crofton Rd,Orpington,Orpington,BR6 8NW,Pub,51.368235,0.056846,0.9547410080316612,1.0,7.5,13668.240421500373,2826.7490818464526,36
70,53934523498eb27aa25f74af,One Inn the Wood,209 Petts Wood Rd,Kent,Orpington,BR5 1LA,Pub,51.390105,0.073816,0.9743708532184844,1.0,8.3,12242.494451263956,2363.821927948767,33
71,4b5b7847f964a520a20029e3,The British Queen,427 Crofton Rd,Orpington,Orpington,BR6 8NL,Pub,51.366437,0.0542,0.9464020486555698,1.0,7.3,13763.706988450707,2873.3620059582745,43
72,4b75bb96f964a5208d202ee3,The Greyhound,4 Commonside,Hayes,Keston,BR2 6BP,Pub,51.363645,0.028593,0.956840879990688,1.0,7.4,13364.667696995504,4412.32250609468,0
73,4e6886ebb3ad5d919752d2db,The Woodman,50 High St,Kent,Orpington,BR6 7BA,Bingo Center,51.359255,0.067621,0.9380677453148644,1.0,6.6,14900.304644758846,1682.1990719537587,8
74,4b65a1dcf964a52032f72ae3,The Royal Oak,High St,Green Street West,Orpington,BR6 6BJ,Pub,51.351319,0.089519,0.904898149225934,1.0,7.0,16421.666548777026,245.8691580339505,9
75,4b5b61f4f964a52088f928e3,Ye Olde Whyte Lyon,Farnborough Common,Kent,Orpington,BR6 8NE,Pub,51.364223,0.056685,0.9090862530555232,1.0,6.4,14060.927977705953,2603.929158419752,36
76,4c0bf149340720a101e18893,The Chequers,177 Southborough Lane,Bromley,Bromley,BR2 8AP,Pub,51.39028,0.045439,0.9756116866488184,1.0,6.5,11135.478054157677,4109.081645980033,22
77,4d04c89ea268548102bab9bd,The Fox Inn,Heathfield Rd,Keston,Keston,BR2 6BQ,Pub,51.361966,0.02739,0.938291235013386,1.0,6.4,13509.864814532866,4450.039901811917,0
78,4b9e9c0ff964a5208ff336e3,The Queens Head,73 High St,Orpington,Orpington,BR6 6BQ,Pub,51.352253,0.089814,0.9880409731113956,1.0,6.2,16343.800356352625,140.24310121896016,9
79,4c67dac7b80abe9accd4d0e5,Change of Horses,87 High St,Orpington,Orpington,BR6 7BB,Beer Garden,51.359575,0.069915,0.9355022698172506,1.0,,14944.900224537063,1551.1846552324894,20
80,4c87abc0821e9eb0a2cd8d89,Sovereign of the Seas,109-111 Queensway,London,Petts Wood,BR5 1DG,Pub,51.389374,0.072001,0.9537306483529276,1.0,6.1,12231.134884779212,2417.823532205514,33
81,4e0fa1768877936cb411719f,The Buff,Pinewood Dr,Orpington,,BR6 9NL,Pub,51.360007,0.087786,0.9353043883133512,1.0,5.7,15539.261192218719,739.3734308107563,10
82,4c781d0e566db60cc587400e,The Two Doves,37 Oakley Rd,London,Bromley,BR2 8HD,Arts and Entertainment,51.37259,0.039601,0.9595087882667908,1.0,,12715.57821372388,4094.0243246082164,9
83,4b9d4633f964a520279f36e3,Daylight Inn,Station Square,London,Orpington,BR5 1LZ,Pub,51.389403,0.075031,0.9517471772785472,1.0,5.7,12355.771722097565,2249.3990912061095,36
84,4bd2d1a8caff95210979d3f0,The Maxwell,Station Rd,Bromley,Orpington,BR6 0RZ,Pub,51.371829,0.090791,0.9287533465254336,1.0,,14574.936701313603,900.1510967735436,27
85,4c87abae821e9eb095cd8d89,The Harvest Moon,141-143 High St,Orpington,Orpington,BR6 0LQ,Pub,51.377816,0.101193,0.9570690257245956,1.0,5.0,14499.138569769339,86.02365360409341,69
86,4e8a16064901e444f6a7ab65,Tapping the Admiral,77 Castle Rd,Camden Town,Camden Town,NW1 8SU,Pub,51.545249,-0.146113,0.987289023396578,2.0,8.9,287.1062891300266,551.3502446716402,209
87,4ad011bef964a52080d720e3,The Hawley Arms,2 Castlehaven Rd,London,Camden,NW1 8QU,Pub,51.542083,-0.145564,0.9828029333022932,2.0,8.8,351.28984583721393,426.77051384243595,339
88,4b2e6888f964a520a3df24e3,The Southampton Arms,139 Highgate Rd,London,Kentish Town,NW5 1LE,Pub,51.55606,-0.146228,0.985969037364684,2.0,9.1,418.5274377754439,541.8271990985422,83
89,4af0bf5cf964a520d0de21e3,The Washington,50 Englands Lane,London,Belsize Park,NW3 4UE,Pub,51.545666,-0.162814,0.9828285414969152,1.0,7.7,537.1676411464146,804.5624351760418,71
90,4ac518c3f964a52047a420e3,The Pineapple,51 Leverton St,Kentish Town,Kentish Town,NW5 2NX,Pub,51.553066,-0.139617,0.976058666045862,2.0,8.5,298.7808032756864,393.65097032686276,150
91,4ad64b39f964a5205e0621e3,Edinboro Castle,57 Mornington Terrace,London,Camden,NW1 7RU,Pub,51.536059,-0.144828,0.974920265394017,2.0,8.1,378.3979914712401,357.1637888661436,235
92,4dc03e7c6a23e5a549e75316,The Lion and Unicorn,42-44 Gaisford St,Kentish Town,Kentish Town,NW5 2ED,Beer Garden,51.548005,-0.139121,0.9646979397043416,1.0,8.2,293.2440719870276,246.03537389599813,126
93,53d51a31498ed9172875b3e1,The Rose & Crown,71-73 Torriano Ave,Kentish Town,Kentish Town,NW5 2SG,Comedy Club,51.550286,-0.13306,0.9731207077173788,1.0,8.6,526.5416653911577,612.6120648400339,123
94,4e57e069d22d61e8f3408e62,The Colonel Fawcett,1 Randolph St,Camden Town,Camden Town,NW1 0SS,Pub,51.541765,-0.136043,0.9837550925387032,2.0,8.2,261.0839067549132,274.54101539383123,106
95,4aeda9e5f964a5200bce21e3,The Elgin,255 Elgin Ave,Maida Vale,Maida Vale,W9 1NJ,Beer Bar,51.53033,-0.18551,0.9870911418926784,2.0,8.4,55.10109477114572,1539.241351058647,91
96,4ad86c31f964a5204e1121e3,The Old Eagle,251 Royal College St,London,Camden Town,NW1 9LU,Pub,51.54285,-0.139508,0.97363752764521,1.0,8.1,105.499349751605,224.10709627667902,277
97,4bdec2a10ee3a5939ab431b0,The Lord Stanley,51 Camden Park Rd,Camden Town,Camden Town,NW1 9BH,Pub,51.547148,-0.129562,0.972580607612618,1.0,8.5,812.1407581642604,811.8949534094077,106
98,500012b5e4b064f07ddb5abb,Lord Wargrave,40-42 Brendon St,Marylebone,,W1H 5HE,Pub,51.518117,-0.165765,0.9868536840879992,1.0,8.8,246.023625450678,207.22697444396502,259
99,4ace2fc8f964a520edce20e3,The Warrington,93 Warrington Crescent,London,Maida Vale,W9 1EH,Pub,51.526695,-0.183411,0.9797136538237692,1.0,8.3,378.6611755733424,1110.3401185776206,85
100,4ada4318f964a520a42021e3,The Elephants Head,224 Camden High St,London,Camden,NW1 8QR,Pub,51.540698,-0.143932,0.9857036433476896,2.0,7.8,164.3641222056679,286.40438194722844,355
101,4b45dcabf964a5204e1126e3,The Windsor Castle,98 Park Rd,London,Camden Town,NW1 4SH,Pub,51.526381,-0.162255,0.9709440111744848,1.0,8.1,416.92067651617657,471.06189897073426,80
102,4ee61a462da504839760f91a,The World's End,174 High St,Camden Town,Camden Town,NW1 0NE,Arts and Entertainment,51.539159,-0.142119,0.9960074496566174,1.0,7.9,73.68392652536158,127.26275150229685,344
103,4ace1c4df964a52076ce20e3,The Garden Gate,14 South End Rd,Hampstead,Hampstead,NW3 2QE,Beer Garden,51.554679,-0.165585,0.9738749854498894,1.0,7.8,98.91378537648004,1461.184724321128,61
104,4ac518baf964a520dea120e3,The Flask,14 Flask Walk,London,Hampstead,NW3 1HE,Pub,51.556631,-0.177141,0.9646257711558608,1.0,8.0,96.76161196013584,1345.9315661463324,32
105,53eba251498ebe3ddeb8cb3b,The Royal Oak,74-76 York St,Marylebone,West Central,W1H 1QN,Pub,51.520094,-0.162501,0.9478780118728902,1.0,8.3,287.37464683535785,284.15091143748305,208
106,4b1a1fbaf964a520a7e723e3,The Abbey Tavern,124 Kentish Town Rd,London,,NW1 9QB,Pub,51.545839,-0.141539,0.9761960190897452,1.0,7.7,438.67622543801684,401.874262621424,151
107,4ba4ce47f964a52097b638e3,The Ordnance,29 Ordnance Hill,,,NW8 6PS,Pub,51.535794,-0.171563,0.9490792690024444,1.0,7.4,222.6621615772204,746.1448339505698,56
108,4ac518c4f964a52069a420e3,The Freemasons Arms,32 Downshire Hill,London,Hampstead,NW3 1NT,Beer Garden,51.556904,-0.168907,0.9535420789197998,2.0,7.7,238.6647353448897,1637.3305287767553,37
109,4aea012ff964a52069b821e3,The Lord Palmerston,33 Dartmouth Park Hill,London,Kentish Town,NW5 1HU,Pub,51.559512,-0.140553,0.9618368059597252,1.0,7.9,361.6021638432745,362.9009477439661,102
110,4bd87cd60b779c747f4907a0,The George,250 Haverstock Hill,London,Belsize Park,NW3 2AE,Pub,51.552332,-0.167195,0.9646467233150972,1.0,7.4,281.152867472325,1177.6611746288856,71
111,4ad63a7ff964a520de0521e3,The Clifton,96 Clifton Hill,London,,NW8 0JT,Beer Bar,51.535985,-0.184918,0.9685508089861484,1.0,7.6,635.9477698306479,1080.6461618300036,109
112,4ace2bb3f964a520d1ce20e3,North London Tavern Kilburn,375 Kilburn High Rd,,Kilburn,NW6 7QB,Concert Hall,51.545549,-0.202573,0.9916354324292864,2.0,7.9,61.906501638719185,1008.2392979126463,125
113,4ac518c7f964a52058a520e3,The Pembroke,150 Gloucester Ave,London,,NW1 8JA,Pub,51.542409,-0.154896,0.9618903503666628,1.0,7.1,181.1628676554717,1061.233657309305,126
114,4ad0b80df964a5205ad920e3,Duke of Hamilton,23-25 New End,Hampstead,Hampstead,NW3 1JD,Pub,51.55889,-0.177418,0.9874426725643116,1.0,7.6,281.6231315785143,1411.2968137573623,25
115,4ad4f77af964a520040121e3,Prince Albert,163 Royal College St,London,Camden Town,NW1 0SG,Pub,51.539934,-0.137066,0.964583866837388,1.0,7.4,291.17054933581755,195.5252146854572,233
116,4b4613a0f964a520951526e3,Assembly House,292-294 Kentish Town Rd,Kentish Town,Kentish Town,NW5 2TG,Pub,51.551025,-0.140492,0.9621743685252008,2.0,7.3,64.01940165622042,197.74675199730117,125
117,5c5215468c35dc002cee60f4,Lore of the Land,4 Conway St,London,Fitzrovia,W1T 6BB,Pub,51.522025,-0.139527,0.9645978349435456,1.0,7.6,292.3806249232218,409.0822943292039,177
118,4b7fedcbf964a520fe4430e3,Allsop Arms,137 Gloucester Pl,Marylebone,Marylebone,NW1 5AL,Pub,51.522369,-0.160111,0.9806937492724944,1.0,7.5,202.20842510896915,23.23545723395358,118
119,4f634969e4b0ce431bfee234,The Parcel Yard,"Shared Service Yard, Goods Way",,,N1C 4AH,Arts and Entertainment,51.532327,-0.123734,0.997623093935514,3.0,7.5,196.17064792255746,722.6459700467399,195
120,4cec1c920f196dcb70c55bae,Devonshire Arms,33 Kentish Town Rd,Camden Town,Camden,NW1 8NL,Pub,51.540935,-0.142322,0.9830403911069724,2.0,7.1,190.81810304601777,176.56165644275686,336
121,4be99dfb415e20a1990ce4bb,The Exmouth Arms,1 Starcross St,London,Camden Town,NW1 2HR,Night Club,51.527829,-0.136822,0.9714841112792456,1.0,7.4,234.39213250333967,525.7608733331834,210
122,4ba93cc0f964a52003173ae3,The Constitution,42 St Pancras Way,London,Camden,NW1 0QT,Music Venue,51.540281,-0.135388,0.9253451286229776,1.0,7.2,356.003894960757,280.4110419701398,173
123,4ba3d87cf964a520e46538e3,Warwick Castle,6 Warwick Pl,City of Westminster,Maida Vale,W9 2PX,Karaoke Bar,51.522021,-0.183867,0.9625887556745432,1.0,7.3,142.0500681911114,686.613121652492,103
124,4bfed4a24e5d0f475b3a7d1f,The Camden Eye,2 Kentish Town Rd,London,Camden Town,NW1 9NX,Concert Hall,51.53948,-0.142198,0.9884763124199744,1.0,6.9,69.47800822384474,160.1518578794781,355
125,4ad3c1d8f964a52029e620e3,Princess of Wales,22 Chalcot Rd,London,Primrose Hill,NW1 8LL,Beer Bar,51.540347,-0.153859,0.9532208124781748,1.0,6.7,395.07830512368383,917.7230725089828,90
126,4bae8164f964a52091ba3be3,Oxford Arms,265 Camden High St,Camden Town,Camden,NW1 7BU,Pub,51.54057,-0.144377,0.9842858805726924,1.0,6.8,164.3978005067379,317.64239949006287,349
127,4aef3425f964a5208bd621e3,Fountains Abbey,109 Praed St,Paddington,Paddington,W2 1RL,Pub,51.516902,-0.172958,0.9829984867884995,1.0,7.2,261.4524571725071,292.7605281734673,239
128,5891b1d9cc5b6a7ca7058b26,Sir Colin Campbell,264-266 Kilburn High Rd,London,Kilburn,NW6 2BY,Pub,51.543477,-0.199431,0.9678826679082762,1.0,6.9,300.8122123202623,1155.1547036712072,206
129,4af9f45ff964a520891522e3,The Enterprise,2 Haverstock Hill,London,Belsize Park,NW3 2BL,Pub,51.544126,-0.152844,0.9865231055756024,1.0,6.3,73.31830415890397,955.0452712094343,166
130,4cff51b16923721e82bfbe3b,The Star of Kings,126 York Way,London,Islington,N1 0AX,Pub,51.536521,-0.121916,0.9898940751949716,1.0,6.9,644.2874162846863,805.9874218617031,108
131,4c2f78373896e21e24f8e390,Carlton Tavern,33A Carlton Vale,Greater London,Kilburn,NW6 5EU,Pub,51.532056,-0.191426,0.9593062507275056,1.0,6.7,367.33572586654145,1707.526675651487,142
132,4b994269f964a520516e35e3,The Ice Wharf,28 Jamestown Rd,London,Camden Town,NW1 7BY,Night Club,51.540346,-0.145704,0.9922686532417646,1.0,6.4,210.91239741184603,399.3723541000011,345
133,4ac518bcf964a52081a220e3,The Good Mixer,30 Inverness St,London,Camden,NW1 7HJ,Dive Bar,51.539487,-0.144393,0.9773157956000466,1.0,6.4,87.77369983026887,270.95433453113225,314
134,4b801f80f964a520375430e3,The Metropolitan Bar,"7 Station Approach, Baker St",Marylebone,,NW1 5LD,Pub,51.522676,-0.156862,0.9976161098824352,2.0,6.6,12.649932405850453,250.23618340996654,113
135,4b6c7629f964a520133c2ce3,Globe,43 Marylebone Rd,Marylebone,Marylebone,NW1 5JY,Pub,51.52197,-0.157056,0.9952834361541149,2.0,6.6,29.624464143018457,236.1664748243055,119
136,4c424d876c1a952116c8b96a,The Albany,240 Great Portland St,London,Fitzrovia,W1W 5QU,Dive Bar,51.523228,-0.143925,0.9778838319171226,2.0,6.6,75.89892445497584,366.0907765576098,147
137,4bae1a7df964a52088843be3,The Royal Exchange,26 Sale Pl,Paddington,Paddington,W2 1PU,Pub,51.518134,-0.169737,0.9607542777325108,1.0,6.7,165.18265528609888,198.62065317797726,268
138,4b6ec711f964a5202cca2ce3,The Railway,100 West End Lane,West Hampstead,Kilburn,NW6 2LU,Pub,51.546252,-0.190963,0.9776626702362938,1.0,6.5,45.45268932474384,892.9886800814869,95
139,4b5092a7f964a520db2727e3,Ye Olde Swiss Cottage,98 Finchley Rd,Swiss Cottage,Hampstead,NW3 5EL,Pub,51.542894,-0.174764,0.9837783727156326,1.0,6.1,55.95516657434646,119.07997936790393,112
140,5bb3a29b3ba767002cacd8c9,The Barrel Vault,Pancras Rd,London,Kings Cross,N1C 4QP,Beer Bar,51.533579,-0.1286177,0.9984169479688044,1.0,6.6,463.050722307061,815.4327755876594,147
141,4ad73549f964a520fd0821e3,Prince of Wales Feathers,8 Warren St,London,Fitzrovia,W1T 5LD,Pub,51.524233,-0.13855,0.9658479804446514,1.0,6.5,43.01953611988492,461.80109481284336,182
142,4b62dc55f964a520f9552ae3,The Doric Arch,1 Eversholt St,Euston,Camden Town,NW1 1DN,Pub,51.527996,-0.132049,0.9867582353625888,2.0,6.5,73.59219435922826,535.7582084541261,203
143,4bfea3e5ca1920a1a094eb81,Lyttelton Arms,1 Camden High St,London,Camden Town,NW1 7JE,Pub,51.534532,-0.139251,0.978472820393435,2.0,6.3,33.565047684306805,423.87542705910704,199
144,4ada427ef964a520a02021e3,Quinn's,65 Kentish Town Rd,London,Camden Town,NW1 8NY,Pub,51.543002,-0.142073,0.966569665929461,,5.7,197.4019612605312,290.2753177916869,311
145,4b914716f964a52061af33e3,O'Neill's,73-77 Euston Rd,London,Camden,NW1 2QS,Pub,51.528916,-0.126176,0.985366080782214,2.0,6.1,238.1008943131495,345.5363708376095,280
146,4b686220f964a52028752be3,Royal George,Eversholt St,Euston,Camden Town,NW1 1DG,Pub,51.528287,-0.131597,0.9944476778023512,2.0,6.0,116.30431742858282,523.5971463420052,171
147,611035148f4dfd74ee8c309b,The Magdala Tavern,2A South Hill Park,London,,NW3 2SB,Pub,51.555727,-0.165369,0.9557886159934816,1.0,,93.42808282924814,1575.4965683401474,51
148,4ad08fd2f964a52071d820e3,The Rocket,120 Euston Rd,Euston,Camden Town,NW1 2AL,Pub,51.528246,-0.128965,0.982765685019206,3.0,5.9,286.78226857476636,375.41772810465767,216
149,4ad4b280f964a520b5e820e3,The Court,108A Tottenham Ct Rd,London,Fitzrovia,W1T 5AA,Pub,51.523067,-0.136878,0.9726364800372482,1.0,5.8,180.3819045238668,332.34759362864736,163
150,4c17674959cc2d7fda875287,Green Man,383 Euston Rd,Euston,Camden,NW1 3AU,Pub,51.523695,-0.143183,0.974817832615528,2.0,5.6,59.46545704120125,320.58327528364526,162
151,4baa3de8f964a520de563ae3,The Stags Head,102 New Cavendish St,London,Marylebone,W1W 6XW,Pub,51.519907,-0.143195,0.9667791875218252,1.0,5.7,448.3319188810603,618.6471704665539,156
152,4bc4604e461576b01ac77f32,Duke of York,45 Harrowby St,London,Marylebone,W1H 5HT,Pub,51.517584,-0.164117,0.96916307763939,1.0,5.6,351.7080067260389,331.38967739496485,230
153,4ad7a555f964a520350d21e3,The Northumberland Arms,119 Tottenham Ct Rd,London,Fitzrovia,W1T 5AW,Pub,51.523533,-0.137327,0.9772087067861716,1.0,5.4,120.09079420695818,392.54497651492454,170
154,4ac518bff964a52024a320e3,Ye Olde Cheshire Cheese,145 Fleet St,London,Fleet Street,EC4A 2BU,Pub,51.514321,-0.10721,0.9835199627517168,2.0,8.6,267.707150816591,328.3022196359051,99
155,539db859498eb12d43cf35e8,The Culpeper,40 Commercial St,London,Aldgate,E1 6LP,Pub,51.516814,-0.072909,0.9875264812012572,2.0,8.8,201.8698916556596,180.5547491918496,312
156,4ace2e9ef964a520e1ce20e3,The Rake,14a Winchester Walk,London,Southwark,SE1 9AG,Beer Bar,51.506131,-0.091223,0.9845605866604586,2.0,8.5,451.1206895130834,250.62985245165052,192
157,4ac518baf964a520d5a120e3,The Blackfriar,174 Queen Victoria St,London,The City,EC4V 4EG,Pub,51.512102,-0.103706,0.9902619019904552,2.0,8.2,80.85706014217254,112.67502807063853,81
158,4ac518bef964a52010a320e3,Founder's Arms,52 Hopton St,South Bank,Southwark,SE1 9JH,Pub,51.508517,-0.101674,0.9931486439296938,2.0,8.3,368.7707764335281,424.6158490251273,74
159,4acf5df2f964a52042d320e3,Old Fountain,3 Baldwin St,Hoxton,The City,EC1V 9NU,Pub,51.526891,-0.089027,0.9819113025258992,2.0,8.5,131.39327656818145,55.31512990574634,299
160,542aeb3b498e5227edba2428,The Understudy,The National Theatre,London,Waterloo,SE1 9PX,Pub,51.507632,-0.113841,0.9906064486090096,1.0,8.9,391.21111476511214,462.0852906984923,117
161,4ac518c3f964a52043a420e3,Cittie of Yorke,22 High Holborn,Holborn,Holborn,WC1V 6BN,Pub,51.518437,-0.112948,0.9889931323478058,1.0,8.5,124.70260531175461,416.6320581239547,158
162,4b472756f964a520072c26e3,Carpenter's Arms,73 Cheshire St,London,Bethnal Green,E2 6EG,Pub,51.523989,-0.067348,0.9557909440111744,2.0,9.0,740.0650299852626,708.8022381869387,207
163,4ad46036f964a520afe720e3,The Pride of Spitalfields,3 Heneage St,London,Aldgate,E1 5LJ,Pub,51.518945,-0.071245,0.9637038761494588,1.0,8.5,424.71369912934813,91.29745165615527,238
164,4af49c85f964a52052f421e3,The Old Bank of England,194 Fleet St,London,Fleet Street,EC4A 2LT,Pub,51.513916,-0.111302,0.9886462577115586,1.0,8.2,341.4115945298208,231.37152392595678,91
165,5363e078498edd00c571a622,The Three Johns,73 White Lion St,London,Islington,N1 9PF,Beer Bar,51.532948,-0.109065,0.9807729018740542,1.0,9.0,231.25356568300674,174.88510707369488,216
166,4ac518c3f964a52041a420e3,Seven Stars,53 Carey St,Holborn,Holborn,WC2A 2JB,Pub,51.51507,-0.113256,0.978258642765685,1.0,8.2,393.7876367632726,188.20653803931896,119
167,4aeb21def964a520cbbe21e3,Rosemary Branch,2 Shepperton Rd,London,Islington,N1 3DT,Music Venue,51.537583,-0.087005,0.9852170876498662,1.0,8.8,1268.4385917469726,537.7583724447427,139
168,4ace1828f964a52059ce20e3,The Narrow Boat,,Islington,Islington,N1 8PZ,Pub,51.533078,-0.096802,0.9787824467465952,2.0,8.4,624.6855706035356,593.9085944609863,164
169,4ac518c3f964a52034a420e3,Upstairs at the Ten Bells,84 Commercial St,London,,E1 6LY,Pub,51.51935,-0.074203,0.9895378884879524,2.0,8.0,497.24852272417735,238.1705548714319,266
170,5c506375f427de002c2e7d44,The Telephone Exchange,10-18 London Bridge St,London,,SE1 9SG,Pub,51.505084,-0.088106,0.9960563380281692,1.0,7.9,228.97952150284158,6.529719307178247,213
171,4b49e9fcf964a520e57526e3,Marksman,254 Hackney Rd,London,Bethnal Green,E2 7SJ,Pub,51.530863,-0.069572,0.9911395646606914,1.0,8.5,1085.4901988586244,913.4113613055634,206
172,4aec9f4bf964a52091c921e3,The Roebuck,50 Great Dover St,London,Southwark,SE1 4YG,Pub,51.498095,-0.090711,0.9644022814573392,2.0,8.2,410.03396506472,388.8963019981606,178
173,4ac518bef964a520faa220e3,Anchor Bankside,34 Park St,South Bank,Southwark,SE1 9EF,Arts and Entertainment,51.507187,-0.092961,0.9938586893260388,1.0,7.6,500.22177520624865,414.42407510631426,174
174,4ac518c3f964a5203ca420e3,The Porterhouse,21-22 Maiden Lane,London,Covent Garden,WC2E 7NA,Arts and Entertainment,51.510321,-0.123561,0.9872983354673496,2.0,8.3,310.68594252883594,96.15998765258763,625
175,4c741edcc219224b79f39e28,"Draft House, Tower Bridge",206-208 Tower Bridge Rd,London,Bankside,SE1 2UP,Beer Bar,51.502839,-0.076931,0.9895937609125828,3.0,8.0,613.7993797525146,119.98367112731962,84
176,4ac518c5f964a520d5a420e3,Princess Louise,208 High Holborn,London,Holborn,WC1V 7BW,Pub,51.51728,-0.121619,0.9893400069840532,1.0,8.1,76.34606869384012,473.88636962546036,243
177,5cdd51073d4791002e65b8bb,The Buxton,42 Osborn St,London,Spitalfields and Banglatown,E1 6TD,Pub,51.517236,-0.070382,0.9808404143871492,1.0,7.8,252.34320023651986,120.69943226784844,260
178,4ad0963ef964a52093d820e3,The Woolpack,98 Bermondsey St,London,Bermondsey,SE1 3UB,Pub,51.500766,-0.082037,0.9852706320568037,2.0,7.9,545.3609332751167,375.36683594716357,137
179,4dab37d78154abafc2be3377,Royal Oak,78 Fitzalan St,London,Lambeth,SE11 6QU,Arts and Entertainment,51.49313,-0.11277,0.929691537655686,1.0,8.4,647.4220555004332,339.311284647981,132
180,4ad78c64f964a5200f0c21e3,The Owl & Pussycat,34 Redchurch St,Shoreditch,Bethnal Green Shoreditch,E2 7DP,Cocktail Bar,51.52428825,-0.0754746015882803,0.9875241531835642,2.0,7.7,858.7961097939854,741.3674229950477,400
181,55f2d6a2498e4a19576e08b5,The Hydrant,"Equitable House, 1 Monument St",London,Fenchurch Street,EC3R 8BG,Pub,51.510305,-0.086303,0.9849214294028634,1.0,7.4,26.61868080298154,510.1359664857698,227
182,4adf266af964a520df7721e3,Waxy O'Connor's,14-16 Rupert St,London,Soho,W1D 6DD,Pub,51.51078,-0.132348,0.9889116517285532,2.0,8.3,125.35010269887381,299.6358605536426,1188
183,4b65b260f964a52023fa2ae3,The Wheatsheaf,6 Stoney St,London,Southwark,SE1 9AA,Pub,51.505267,-0.0912,0.9855942265161216,2.0,7.6,441.26410424111066,221.53603180819206,202
184,4b22a97df964a520504b24e3,Captain Kidd,108 Wapping High St,London,Wapping,E1W 2NE,Pub,51.50332,-0.058146,0.9736002793621232,1.0,8.2,195.33518999723745,852.1346385843232,68
185,4beeb7413686c9b600d3246e,The Prospect of Whitby,57 Wapping Wall,London,Wapping,E1W 3SJ,Pub,51.507103,-0.051082,0.9853404725875916,1.0,8.3,449.79553419129076,676.029476340395,72
186,4ad785bbf964a520bf0b21e3,De Hems Dutch Cafe Bar,11 Macclesfield St,Soho,West Central,W1D 5BW,Pub,51.512129,-0.131253,0.9891374694447678,2.0,8.1,204.37207615187899,219.85918233508687,1200
187,4aec40e1f964a520b0c521e3,Sherlock Holmes,10 Northumberland St,Charing Cross,Strand,WC2N 5DB,Pub,51.507324,-0.1252,0.9948294727039926,2.0,8.0,156.6738240334492,160.97975692635342,425
188,4bc6040a6c26b713e325ecf3,The White Hart,1 Mile End Rd,London,Stepney,E1 4TP,Pub,51.520232,-0.056084,0.9888581073216156,2.0,8.0,252.11095811187968,900.5187560169337,252
189,4b7fe833f964a520a14330e3,The Angel,101 Bermondsey Wall East,Bermondsey,,SE16 4NB,Pub,51.500684,-0.059019,0.9709556512629496,1.0,8.0,420.55211627610777,728.1007936470985,69
190,4b784f68f964a52040c42ee3,The Old Shades,37 Whitehall,City of Westminster,Westminster,SW1A 2BX,Pub,51.506493,-0.126804,0.9869491328134092,2.0,7.9,274.4914527221685,159.2722917001517,346
191,4ac518c3f964a5202fa420e3,The Dickens Inn,Marble Quay,London,Monument Tower Hill Aldgate,E1W 1UH,Pub,51.506611,-0.070149,0.99023396577814,2.0,7.5,589.2992724402872,711.530734055655,61
192,4ac518c5f964a520c4a420e3,Camden Head,2 Camden Walk,Islington,Islington,N1 8DY,Pub,51.535608,-0.102957,0.977692934466302,2.0,7.6,394.3847164830409,588.1915925325616,234
193,4b3dfea1f964a520b89725e3,The Minories,64-73 Minories,London,The City,EC3N 1JL,Pub,51.510836,-0.074717,0.9935281108136422,1.0,7.3,177.88362437755626,841.612010977729,191
194,4ad364e6f964a5201fe420e3,The Horniman at Hays,Hays Galleria,London,Southwark,SE1 2HD,Beer Garden,51.505728,-0.083503,0.9953625887556744,2.0,7.2,100.61498419774648,320.064999395115,150
195,4ad85d94f964a520161121e3,The Eagle,2 Shepherdess Walk,London,Islington,N1 7LB,Beer Bar,51.52861,-0.091645,0.9871074380165288,2.0,7.2,393.4941706436686,18.548766940849255,233
196,4ad61fd1f964a520330521e3,The Red Lion,48 Parliament St,London,Westminster,SW1A 2NH,Pub,51.502051,-0.125749,0.991514375509254,1.0,7.7,110.8167896555993,127.57862352760506,120
197,4ad4dc51f964a5204bfc20e3,The Wellington,351 Strand,London,Strand,WC2R 0HS,Pub,51.511424,-0.119594,0.9953975090210686,2.0,7.4,372.3125095828508,378.4368859820172,343
198,4b47ab8cf964a520e23926e3,The Castle,44 Commercial Rd,London,Aldgate,E1 1LN,Pub,51.514881,-0.06905,0.9924735187987428,1.0,7.2,191.09254742877417,395.29976017021795,294
199,4b5c746ff964a520b43029e3,Liberty Bounds,15 Trinity Square,London,The City,EC3N 4AA,Pub,51.509744,-0.078495,0.9943266208823188,2.0,7.0,117.85828822324972,823.9000714369723,163
200,4ad26ce6f964a52091e120e3,O'Neill's,33-37 Wardour St,Soho,Soho,W1D 6PU,Pub,51.511277,-0.132138,0.9954091491095332,2.0,7.4,170.35949408242243,273.9423810297736,1199
201,4ac518baf964a520d4a120e3,The Salisbury Pub,,London,Covent Garden,WC2N 4AP,Pub,51.510909,-0.127233,0.9895658247002678,1.0,7.3,107.69562808120499,99.48187468731747,1240
202,4b0fd340f964a5203b6523e3,The Old Thameside Inn,"Pickfords Wharf, Clink St",Greater London,Southwark,SE1 9DG,Beer Garden,51.506974,-0.091718,0.9823163776044698,2.0,6.8,500.7659476392897,331.24651101474666,195
203,4af06e30f964a520f4db21e3,The Marquis of Cornwallis,31 Marchmont St,Bloomsbury,Bloomsbury,WC1N 1AP,Pub,51.524424,-0.125061,0.9951134908625304,2.0,7.2,140.57453072171907,162.24518638796243,174
204,4afd6abff964a520b62722e3,Shakespeares Head,64-68 Kingsway,Holborn,Holborn,WC2B 6BG,Pub,51.516833,-0.119602,0.996980561052264,1.0,7.0,72.46809796848733,456.8796120378984,225
205,4c87ac36821e9eb0ffcd8d89,Goodmans Field,87-91 Mansell St,London,Whitechapel,E1 8AN,Pub,51.511573,-0.072804,0.988490280526132,1.0,6.8,317.49768191954615,735.5514108586775,214
206,4ad9b52af964a5207a1a21e3,The Ring,72 Blackfriars Rd,Southwark,Waterloo,SE1 8HA,Pub,51.503556,-0.104875,0.9910604120591316,3.0,6.9,32.25670208665929,579.1194780399659,193
207,4b8e9757f964a520a22a33e3,George IV,28 Portugal St,City of Westminster,Holborn,WC2A 2HE,Pub,51.514682,-0.116972,0.972897218018857,1.0,6.9,366.3172407389223,203.0559641542353,224
208,4bb9014a314e95216908499d,Pommelers Rest,196-198 Tower Bridge Rd,London,Bermondsey,SE1 2UN,Pub,51.502449,-0.077168,0.9929624025142592,1.0,6.8,620.6606607460766,79.51077109828402,91
209,4b21114bf964a5208f3624e3,The Clarence,53 Whitehall,London,Westminster,SW1A 2HP,Pub,51.506172,-0.126724,0.988134093819113,1.0,7.0,280.3368746685694,123.50141418793777,288
210,578920f6498e94398f3c3a54,Elephant & Castle,119 Newington Causeway,London,,SE1 6BN,Pub,51.495791,-0.099753,0.9839343499010592,1.0,6.9,134.1689609888354,422.09262260156504,257
211,4ac518bcf964a52097a220e3,The Cross Keys,31 Endell St,London,Covent Garden,WC2H 9EB,Pub,51.514539,-0.124751,0.9768455360260738,1.0,6.9,165.61292068402022,407.93139846651593,615
212,4ae19ccbf964a520688621e3,The White Hart,89 Whitechapel High St,London,Whitechapel,E1 7RA,Pub,51.515771,-0.070889,0.9938400651844954,1.0,6.7,93.40391165753846,264.244280506019,280
213,4ac518c5f964a520d4a420e3,St Stephens Tavern,10 Bridge St,London,Westminster,SW1A 2JR,Pub,51.501093,-0.125416,0.9966173902921662,1.0,7.0,38.66365078156811,197.77915338144575,118
214,4c07de0d708c2d7f0da0ca63,Doggetts Coat & Badge,1 Blackfriars Bridge,London,Waterloo,SE1 9UD,Pub,51.508486,-0.104715,0.9942172040507508,2.0,6.5,330.5029422868647,353.87977737609606,87
215,4ae49b93f964a520449c21e3,The Barrowboy and Banker,6-8 Borough High St,London,,SE1 9QQ,Pub,51.50622,-0.088653,0.9954394133395412,2.0,6.5,281.8724818596753,133.35753194703005,203
216,4b61ca0ef964a520f2222ae3,The Paternoster,2-4 Queens Head Passage,London,Fleet Street,EC4M 7DZ,Pub,51.515147,-0.098648,0.9909928995460364,2.0,6.2,74.26003930228916,357.4314448728709,130
217,4ac518bcf964a52069a220e3,The Coal Hole,91-92 Strand,London,Strand,WC2R 0DW,Pub,51.51031,-0.121462,0.9918519380747294,1.0,6.7,350.78216983898227,221.43858252295794,402
218,4ad771e0f964a5208f0a21e3,The Crown & Two Chairmen,31-32 Dean St,Soho,Soho,W1D 3SB,Beer Bar,51.513917,-0.132365,0.9840693749272494,2.0,6.8,311.8424788598495,388.6844746249016,1271
219,4bbe1f3cb42aef3b02724bc3,Penderel's Oak,283-288 High Holborn,Holborn and Covent Garden,Holborn,WC1V 7HP,Pub,51.517995,-0.115506,0.9934489582120823,1.0,6.4,304.1248341123581,342.17533365939977,172
220,4b7daaeff964a52075cd2fe3,The Montagu Pyke,105-107 Charing Cross Rd,London,Covent Garden,WC2H 0DT,Pub,51.514026,-0.130009,0.9890490047724364,1.0,6.6,264.59422348385414,300.5219675094292,1173
221,4b50af87f964a520722d27e3,The Railway Tavern,15 Liverpool St,Whitechapel,The City,EC2M 7NX,Beer Bar,51.517473,-0.083313,0.9935746711675008,1.0,5.9,63.28119900154809,222.23005076927384,302
222,4ad36684f964a5202ce420e3,Hamilton Hall,32 Liverpool St,London,The City,EC2M 7PY,Pub,51.518963,-0.081491,0.9976743103247584,1.0,5.9,158.07789921691614,173.33163801471412,300
223,4ad8c1c7f964a520651421e3,Crown & Anchor,22 Neal St,London,Covent Garden,WC2H 9PS,Beer Bar,51.514034,-0.12515,0.9901687812827378,1.0,6.3,122.31642921146313,346.414481650694,724
224,4c87aaf9821e9eb0ebcc8d89,The Sir John Oldcastle,29-35 Farringdon Rd,London,Clerkenwell,EC1M 3JF,Night Club,51.519845,-0.105863,0.993004306832732,2.0,5.7,76.90172745849937,375.0199841887506,142
225,4aef2314f964a520f0d521e3,Theodore Bullfrog,28 John Adam St,Charing Cross,Charing Cross,WC2N 6HL,Pub,51.508844,-0.123909,0.9744337096961936,1.0,6.0,203.83536716649525,78.67934343155095,543
226,4ad0fbbdf964a520b5db20e3,Maple Leaf,41 Maiden Lane,London,Covent Garden,WC2E 7LJ,Pub,51.511006,-0.122778,0.980144337096962,2.0,5.9,252.67658414526937,189.279826099655,605
227,4ee61a462da504839760f8b3,The Hole in the Wall,5 Mepham St,Waterloo,Waterloo,SE1 8SQ,Pub,51.504149,-0.113121,0.9916726807123736,1.0,5.7,103.88479874218658,102.99610716908782,229
228,4bc2232d461576b050e97c32,The York,82 Islington High St,London,Islington,N1 8EQ,Pub,51.533785,-0.104983,0.9871330462111512,2.0,5.7,150.29991633061556,418.4132983253658,240
229,4b57a91ef964a520493a28e3,Millers,19 Caledonian Rd,London,Islington,N1 9DX,Pub,51.531529,-0.121105,0.9794436037713886,1.0,5.8,93.20374463922626,685.6369806463237,251
230,4bcb51523740b713013a6265,The Oval Tavern,131 Oval Rd,Croydon,Croydon,CR0 6BR,Pub,51.378307,-0.08766,0.9478966360144336,1.0,8.1,7681.229202474164,347.7361815552481,137
231,4bcb20e4937ca59363e1a892,Dog & Bull,24 Surrey St,Croydon,Croydon,CR0 1RG,Beer Bar,51.373001,-0.10156,0.9541543475730416,1.0,7.4,7227.733437749232,483.29626050178234,343
232,4d276ce5f7a9224b4043eb9f,The Royal Standard,1 Sheldon St,Croydon,Croydon,CR0 1SS,Pub,51.369907,-0.1017,0.962979862646956,1.0,7.2,7380.503729342208,410.9019664388749,295
233,4b61e032f964a5208b282ae3,The Spread Eagle,39-41 Katharine St,Croydon,Croydon,CR0 1NX,Pub,51.372206,-0.100033,0.964828308695146,1.0,7.0,7362.241811683257,345.9524118662748,335
234,4bb501410ef1c9b607bef412,The Crown & Pepper,,Croydon,,CR0 1NF,Pub,51.368942,-0.09918,0.9276452101035968,1.0,7.0,7585.558238891627,283.24411776958914,247
235,4ba52e5ff964a5209ee838e3,The Green Dragon,60 High St,Croydon,Croydon,CR0 1NA,Pub,51.371635,-0.100653,0.9894750320102432,1.0,6.9,7353.110507940591,355.67331239398465,319
236,4b642713f964a5207da12ae3,The Tree House,78 South End,Croydon,Croydon,CR0 1DP,Pub,51.365253,-0.099315,0.93079734605983,1.0,7.1,7786.1824550190695,621.0967304750919,182
237,4bd6062029eb9c741e6694e1,The Clifton Arms,21 Clifton Rd,Selhurst,South Norwood,SE25 6NJ,Pub,51.396457,-0.086244,0.9258875567454312,1.0,7.7,6650.302556765469,1542.5225733232824,96
238,4beea8d7e8c3c9284eeb9892,The Plough,Croydon Rd,London,Croydon,CR0 4QR,Pub,51.367301,-0.131859,0.9373553719008264,1.0,6.7,5834.048833087203,1256.5393531533161,27
239,4bb5c3a6ef159c74740675f7,The George,17-21 George St,Croydon,Croydon,CR0 1LA,Pub,51.374118,-0.098509,0.9799534396461412,1.0,6.0,7363.814334869891,441.75653718231166,378
240,4bb4e73d310276b0b381cf90,The Skylark,34-36 South End,Croydon,Croydon,CR0 1DP,Pub,51.366174,-0.099305,0.9708788266790828,1.0,6.1,7733.136589463366,527.9532896110578,181
241,4b632fb8f964a52019692ae3,Crown & Sceptre,32 Junction Rd,Croydon,South Croydon,CR2 6RB,Pub,51.359532,-0.096573,0.979501804213712,1.0,6.2,8295.675707420873,1209.3404341156645,74
242,4b969756f964a52001d734e3,Two Brewers,221 Gloucester Rd,Croydon,Croydon,CR0 2DW,Night Club,51.388268,-0.090023,0.9236759399371436,1.0,6.4,6953.8661643827245,748.4181914497009,87
243,4b0443d0f964a520b25222e3,Goose on the Market,1-4 Surrey St,Croydon,Croydon,CR0 1RG,Pub,51.372735,-0.101447,0.0936165754859737,1.0,5.5,7248.088128997917,460.3179334160425,339
244,4bcde25868f976b0fbff6483,Bar Red Square,63-65 High St,Surrey,Croydon,CR0 1QE,Pub,51.371439,-0.100224,0.7114957513677104,1.0,,7389.599291656889,320.2709578606724,319
245,4d8495a8e83fa143c70d66a1,The Bulls Head,39 Laud St,Croydon,Croydon,CR0 1SX,Pub,51.369619,-0.101045,0.9638877895472006,1.0,,7435.817394366173,372.09780944436807,292
246,4c3cd3c3980320a18a368be4,The Ship of Fools,9-11 London Rd,Croydon,West Croydon,CR0 2RE,Pub,51.378538,-0.103593,0.9263065999301596,1.0,6.0,6792.555092303659,110.7043999778388,300
247,4c643fc5d6a320a1d697cf2a,The Surrey Cricketers,23 West St,Croydon,Croydon,CR0 1DJ,Pub,51.368168,-0.101841,0.947351879874287,1.0,,7468.2315773469245,485.2741617705044,198
248,4c2343c613c00f4766b288de,Bedford Tavern,16 Sydenham Rd,Croydon,Croydon,CR0 2EF,Pub,51.378826,-0.095108,0.9569875451053428,1.0,5.8,7230.583260545911,433.16287164854634,243
249,4c016d890bce20a1e5b9f6c6,The Brief,48 George St,Croydon,East Croydon,CR0 1PD,Pub,51.37393,-0.097892,0.2587079501804213,1.0,,7411.465611930884,406.04380097436655,358
250,4bbf71a082a2ef3b4ece2cd2,The Edge,1 South End,Croydon,,CR0 1DN,Pub,51.367443,-0.09881,0.9366383424514028,1.0,,7690.534552487632,388.2055627842651,234
251,61216f1117b63c646af6d1d2,King of the South,14 South End,Croydon,,CR0 1DL,Pub,51.366887,-0.099187,0.9871493423350016,1.0,,7699.334848372889,454.5997559394165,196
252,4baa4f83f964a520ab5d3ae3,Porter and Sorter,Station Rd East,Croydon,Addiscombe,CR0 6BT,Pub,51.375946,-0.091831,0.9863065999301596,1.0,5.6,7606.548423310089,62.89629169986762,157
253,4bc9da7f511f95218a5aaec7,The Old Fox & Hounds,1 London Rd,Croydon,Croydon,CR0 2RE,Pub,51.378234,-0.103138,0.9705645442905366,1.0,,6838.52913722421,144.16366830154493,325
254,4f491f76e4b07d0dde762b7f,Babylon Inn,151 North End,Croydon,Croydon,CR0 1TN,Pub,51.377554,-0.102637,0.395201955534862,1.0,,6914.2277437499615,224.6353994179162,315
255,4ca645ca44a8224b07b70140,The Waddon Pub,Duppas Hill Rd,Croydon,,,Pub,51.368341,-0.114336,0.0767780235129787,1.0,,6724.441744243091,1304.7305532512742,64
256,5c2d03060d8a0f002c60aa2a,Whelanâ€™s,15-17 Selsdon Rd,South Croydon,,CR2 6PW,Pub,51.362836,-0.09658,0.9532906530089628,,,8090.436369657496,842.4591274880637,150
257,4bcb137a511f952191b4b0c7,Stag & Hounds,26 Selsdon Rd,South Croydon,South Croydon,CR2 6PB,Pub,51.362193,-0.096421,0.3143685252007915,1.0,,8138.639960731049,913.2714971013979,130
258,4c264762a852c9280856e66c,The Hare & Hounds,325 Purley Way,Croydon,Croydon,CR0 4NU,Pub,51.37146,-0.117104,0.9742544523338378,1.0,,6373.39824233962,1309.1011703726,66
259,4ba68cd0f964a520665d39e3,Croham Arms,1 Croham Rd,Surrey,South Croydon,CR2 7PB,Pub,51.36228,-0.09573,0.8738959376091259,1.0,,8173.562410756228,902.7094354745868,129
260,4bb8b27b1261d13adad1e898,The Orchard,112 Cherry Orchard Rd,Croydon,Croydon,CR0 6BA,Pub,51.378961,-0.088725,0.9374601326970085,1.0,,7578.885332869477,369.50221387847233,141
261,4bfdac642b83b71381c2a998,The Woodman,36 Upland Rd,Surrey,South Croydon,CR2 6RE,Pub,51.360411,-0.096314,0.8873285996973577,1.0,,8254.92656188797,1111.0093169475003,113
262,4d73a2b4311f6ea889dfebea,The Windmill,,Croydon,Croydon,CR0 2BW,Pub,51.381301,-0.091964,0.9304597834943544,1.0,,7245.655478039297,601.0145647050865,178
263,4bcc756ffb84c9b6665e203e,The Cricketers,107 Addiscombe Rd,Croydon,Croydon,CR0 6SG,Pub,51.375235,-0.083861,0.9657082993830752,1.0,,8094.9079902597305,496.44761107290344,81
264,4f494686e4b0e44506cb7ab3,Ye Olde Clocktower,,London,,,Pub,51.384593,-0.098005,0.9141869398207426,1.0,,6693.052783010565,161.26043249765607,175
265,4c5c51ee6ebe2d7ff6bacf2e,The Alma Tavern,129 Lower Addiscombe Rd,Croydon,Croydon,CR0 6PU,Pub,51.379333,-0.080737,0.9369735769991852,1.0,,8015.716451641794,801.7291654787805,123
266,4bc1de3a4cdfc9b6cf209521,The View,188 Selsdon Rd,Surrey,South Croydon,CR2 6PL,Pub,51.355856,-0.092957,0.7831079036200675,1.0,,8737.71615079103,1629.2722141332208,59
267,59dd06be3d47912e9687cc9c,Saints & Sinners,482 London Rd,Croydon,Croydon,CR0 2SS,Pub,51.387718,-0.111091,0.6217646374112443,1.0,,5750.145211502648,759.0654488609916,229
268,548ed92f498e88452cc8a03e,The White Horse,1 Selhurst Rd,London,South Norwood,SE25 5PP,Pub,51.389253,-0.089791,0.8278593877313467,1.0,,6908.715027545816,813.7393283955777,74
269,4af30191f964a520bae921e3,Claret & Ale,Lower Addiscombe Rd,London,Croydon,,Pub,51.379824,-0.073682,0.9266325224071704,1.0,,8403.983912534644,1272.4977379452657,94
270,4d051de4347da1cd13522f8f,Green Dragon,,,,,Pub,51.389926,-0.112493,0.5348061925270632,1.0,,5528.441604302049,960.4919393951127,219
271,4ee3d541722ea7b9449b2f0d,Addiscombe Sports and Social Club,"Addiscombe, Croydon, Greater London CR",Greater London,,,Pub,51.383182,-0.073654,0.8928297055057618,1.0,,8207.340228818754,1444.3549472307016,93
272,4ca72523931bb60c24039ae2,Pawsons Arms,,Croydon,,CR 7 7,Pub,51.392956,-0.096315,0.957339075776976,1.0,,6298.354499798756,866.337953518051,114
273,4ccc87be2dc437048f39c808,The Horseshoe,745 London Rd,Surrey,Thornton Heath,CR7 6AW,Pub,51.394794,-0.114933,0.9188429752066116,1.0,,5092.827152467847,1445.406319266258,125
274,4fa83cbde4b07bdf3edaa53d,The Joiners Arms,52 Woodside Green,London,South Norwood,SE25 5EU,Pub,51.38668,-0.070619,0.981138400651845,1.0,,8151.430654687792,1847.5693478135909,77
275,4cdc906ddf986ea8d1aed016,The Cricketers,47 Shirley Rd,Croydon,Croydon,CR0 7ER,Pub,51.381303,-0.062831,0.975062274473286,1.0,,8936.419350859624,2039.1733718907687,38
276,4c029e24f423a593fc04cf16,The Whitehorse Pub,1 Selhurst Rd,Croydon,,SE25 5PP,Pub,51.395789,-0.085461,0.1573227796531253,1.0,,6735.604260398648,1519.5653732897665,82
277,4b969abcf964a52008d834e3,Railway Telegraph,19 Brigstock Rd,Croydon,Thornton Heath,CR7 7JJ,Pub,51.3981,-0.100961,0.942986846700035,1.0,,5697.8384347964375,1405.2099549823788,170
278,536418d4498e53ff31fb7598,The Drapers Arms,24-25 High St,Ealing,Ealing,W5 5DB,Bakery,51.51186,-0.305193,0.9512396694214876,1.0,8.4,430.63812366509063,347.71983264181006,165
279,4acdf3d9f964a520aecd20e3,The Castle Inn,36 St. Marys Rd,Ealing,Ealing,W5 5EU,Pub,51.506168,-0.305337,0.9379885927133046,1.0,8.1,621.7316145622876,736.2086271413663,41
280,4b2d3d3af964a520fbd124e3,The Grange,Warwick Rd,Ealing,Ealing,W5 3XH,Pub,51.508335,-0.296239,0.9769572808753346,1.0,8.1,582.0157009406759,1051.4606444297312,45
281,4b34a764f964a520302825e3,Red Lion,13 St. Marys Rd,Ealing,Ealing,W5 5RA,Pub,51.507921,-0.304918,0.9513607263415202,2.0,7.9,809.5753346342242,587.5632607578852,66
282,4ad63fbcf964a520090621e3,Express Tavern,56 Kew Bridge Rd,Kew,Brentford,TW8 0EW,Pub,51.489081,-0.28782,0.9784169479688044,1.0,8.8,883.3675236447665,359.0865135063205,55
283,589128c79398ab2b1e513020,The Dodo Micropub,52 Boston Rd,London,,W7 3TR,Pub,51.506847,-0.337546,0.9592270981259458,1.0,8.4,1521.5800943813772,932.541532465957,100
284,4bb4e622c29a95217beaa735,The Haven Arms,33 Haven Lane,Ealing,Ealing,W5 2HZ,Pub,51.516925,-0.300023,0.921389826562682,1.0,7.5,247.37901485714355,888.869798023883,110
285,4b11247df964a5205d7823e3,The Duke of Kent,The Duke of Kent,Ealing,,W13 8DL,Pub,51.525272,-0.320271,0.93328832499127,2.0,7.8,1292.4846153995331,1614.821483818123,14
286,4cb84e45a33bb1f781d87ffd,The Station House,Churchfield Rd,Acton,Acton,W3 6BH,Pub,51.508768,-0.263176,0.9765754859736934,1.0,8.3,12.398524565345411,815.4675088665896,69
287,4ad635a4f964a520c20521e3,The Lord Nelson,9-11 Enfield Rd,London,Brentford,TW8 9NY,Pub,51.491341,-0.308527,0.926995693167268,2.0,7.8,1000.2971822425194,696.9544532954051,78
288,4b803fe2f964a520c36030e3,The Sir Michael Balcon,46-47 The Mall,Ealing,Ealing,W5 3TJ,Pub,51.513537,-0.298406,0.9780048888371552,1.0,7.0,239.16673577377526,833.1931418804443,143
289,527c07e711d255a8e45a3856,The Aeronaut,264 Acton High St,Acton,Acton,W3 9BH,Pub,51.508508,-0.275519,0.952291933418694,2.0,7.5,691.9981564746762,39.28639842478434,145
290,4b51afeaf964a5209a5227e3,The Griffin,57 Brook Rd South,Brentford,Brentford,TW8 0NP,Pub,51.487058,-0.302964,0.9280805494121755,1.0,7.8,1565.232699096878,763.0621270115146,97
291,4ae389eff964a520659621e3,The North Star,43 The Broadway,Ealing,Ealing,W5 5JN,Pub,51.513748,-0.301944,0.9707018973344196,2.0,6.8,130.39910660820803,602.099870148226,163
292,4b59f057f964a5206ca228e3,The Rocket,11-13 Churchfield Rd,London,Acton,W3 6BD,Pub,51.508668,-0.264153,0.87776277499709,1.0,7.4,79.70179749007144,747.5872931087636,90
293,4be9a25e246fb713d7cfabdf,The Fox Inn,Green Lane,Hanwell,Hanwell,W7 2PJ,Pub,51.50424,-0.343336,0.9598510068676522,1.0,7.4,1576.2016951718635,1409.0417721916263,20
294,4ac53702f964a52007b120e3,The New Inn,62 St. Marys Rd,Ealing,Ealing,W5 5EX,Pub,51.504955,-0.305795,0.94941683156792,1.0,6.6,483.4314518186689,829.4203766064871,40
295,4b89319ff964a5200d2232e3,The Globe,104 Windmill Rd,Brentford,Brentford,TW8 9NA,Pub,51.490524,-0.309753,0.9463741124432544,1.0,7.0,1064.5712543669163,809.4271985100837,60
296,4b69e804f964a52052bb2be3,The Lodge Tavern,53 The Mall,Ealing,Ealing,W5 3TA,Pub,51.513796,-0.299808,0.939005936445117,1.0,6.2,148.25218793455227,745.3010518258316,144
297,4b78230df964a520b2b72ee3,The Village Inn,124 Pitshanger Lane,Ealing,Ealing,W5 1QP,Pub,51.526502,-0.312652,0.9177837271563264,1.0,6.5,1373.144489449044,1412.204413961694,26
298,4bb8d01c53649c74425b47fb,The Forester,2 Leighton Rd,Hanwell,West Ealing,W13 9EP,Pub,51.506154,-0.320372,0.9803072983354674,1.0,6.4,858.885719117471,453.77784814563165,77
299,4db89f1dcda10f31e61b8ac9,The Talbot Inn,1 Mill Hill Rd,Greater London,Acton,W3 8JB,Pub,51.506495,-0.273439,0.8772971714585031,1.0,6.6,550.0670177617252,249.86969860242942,162
300,4b6da1f2f964a520f4812ce3,Princess Royal,107 Ealing Rd,Brentford,Brentford,TW8 0LF,Pub,51.488181,-0.301003,0.8793341869398208,1.0,6.6,1481.3102398775216,591.5937033006618,104
301,4cdd99557e2e236a93e3791b,Shanakee,"9-10 Central Buildings, The Broadway",London,Ealing,W5 2NT,Pub,51.514795,-0.302686,0.986180886974741,1.0,,104.24936765233335,603.1908984490722,153
302,4c000b53c30a2d7ff5e7111d,The Greystoke,7 Queens Parade,Ealing,Ealing,W5 3HU,Pub,51.516955,-0.290291,0.9532999650797346,1.0,5.8,181.26320065883465,1415.3355571891623,36
303,4cd6cd947da9a35de062f1b9,Ashby's,123 Uxbridge Rd,London,Ealing,W13 9AU,Pub,51.511244,-0.315829,0.8531812361773949,1.0,,1088.9191572602597,383.6392558776803,127
304,4e134bdd62e1d997a6b00c98,Black George,181 Uxbridge Rd,London,West Ealing,W13 9AA,Night Club,51.511052,-0.317595,0.8921825165871261,1.0,,1210.7397118831527,507.428418762044,141
305,4bb49739f038a5936a2cdaf0,The Viaduct,221 Uxbridge Rd,London,Hanwell,W7 3TD,Pub,51.508424,-0.341908,0.9701198929111862,1.0,6.1,1839.854284564368,1198.756767735252,86
306,4b92bf78f964a520041834e3,Jono's,13 Station Parade,London,Acton,W5 3LD,Arts and Entertainment,51.510226,-0.287215,0.4066860668141078,1.0,,77.0765567364398,869.1897966723071,50
307,4bd5ff6c6f649521f71970ec,The Belvedere,108-112 High St,London,Acton,W3 6QX,Pub,51.506873,-0.268905,0.851616808287743,1.0,5.9,457.2700811927922,457.55714679978576,180
308,4bcdda36fb84c9b60eae223e,The Red Lion & Pineapple,281 High St,Acton,Acton,W3 9BP,Pub,51.50824,-0.276597,0.9878756838551972,1.0,5.7,646.9734276179787,118.4118411607656,142
309,4c4f432ceaa1be9a7a26a645,Mill Hill Hotel,61 Gunnersbury Lane,Acton,Acton,W3 8ED,Pub,51.505603,-0.27856,0.91780235129787,1.0,,346.343466372952,410.62353394465265,119
310,4bf462f12d629521a21d6058,Duke of York,86 Steyne Rd,Acton,Acton,W3 9NU,Night Club,51.509316,-0.27219,0.8866930508671866,1.0,,635.9645688608549,210.01538151750643,156
311,5349a45d11d209ad8f62d666,The Village Inn,66 Boston Rd,London,Hanwell,W7 2ET,Pub,51.505837,-0.337148,0.8562914678151554,1.0,,1412.9064463610232,945.4629027524015,93
312,55d77b39498e56569779feb2,The Sheepwalk Tavern,14 Market Pl,London,Acton,W3 6QS,Pub,51.507626,-0.271289,0.8838295891048772,1.0,,586.9798677915039,272.98136285657847,174
313,4d7fa75a9df3f04d4a1ada94,The New Inn,1 New Rd,Brentford,Brentford,TW8 0NX,Pub,51.48921,-0.302121,0.930620416715167,1.0,,1348.6264557640675,643.949518147775,99
314,5d0ee2a81feae30023ad4423,The Brook,38 New Rd,Brentford,,TW8 0NU,Pub,51.488288,-0.304418,0.9058130601792572,1.0,,1411.5940372175708,817.2905334638604,106
315,4c61bcc958810f47f88a051e,The Leamington,222 Horn Lane,Ealing,Acton,W3 6TG,Pub,51.516986,-0.26652,0.8690350366662787,1.0,,865.5493502391591,1106.170097121138,61
316,4bc61aeab387d13aa34ec1e8,The Windmill,50 High St,Acton,Acton,W3 6LG,Pub,51.506728,-0.266244,0.8739937143522291,1.0,,309.3914560435654,635.3497618926028,144
317,4bc74ee1af07a59351eb7e2d,Wagon & Horses,26 Kew Bridge Rd,Brentford,Brentford,TW8 0EB,Pub,51.488141,-0.290494,0.8338051449191014,1.0,,1091.2606315774344,248.37982893330994,63
318,4e03617d18389833c5967fa0,The Royal Horse Guardsman,23 Ealing Rd,Brentford,Brentford,TW8 0JU,Arts and Entertainment,51.48623,-0.299892,0.9616203003142824,1.0,,1435.9549498473684,628.6004509561257,88
319,4d2f58cc5d4ca1cd7857201b,Myllet Arms,Western Ave,Greenford,Greenford,UB6 8TE,Pub,51.533047,-0.322995,0.9344802700500524,1.0,5.2,408.13025216305476,2096.1307665535487,22
320,4b642c3ff964a52074a22ae3,Jolly Farmers,2 Enfield Rd,Enfield,Enfield,EN2 7QS,Pub,51.654837,-0.107763,0.9270213013618904,1.0,8.0,1860.9921222745297,1904.3866798524746,16
321,59cfed38e179105e08dd7595,Little Green Dragon,928 Green Lanes,London,Bush Hill Park,N21 2AD,Pub,51.636045,-0.09087,0.9904271912466536,1.0,8.0,2570.580989110323,800.3764843785478,15
322,4da8dbd243a1128196ced194,Kings Head,9 Market Pl,Enfield,Enfield,EN2 6LL,Pub,51.652603,-0.082556,0.9637411244325456,1.0,7.0,3454.7232484512256,334.43247706068,115
323,4c004b6af61ea593ffabeb13,The Goat,250 High St,Enfield,Enfield,EN3 4HB,Pub,51.646867,-0.04726,0.9869188685834012,1.0,7.8,5776.103936491311,2452.6997737902907,121
324,4be5564bbcef2d7f69a903e5,The Cricketers,17-19 Chase Side Pl,Enfield,Enfield,EN2 6QA,Pub,51.656459,-0.087395,0.9121196601094168,1.0,7.0,3233.0545431380074,517.5261786956506,31
325,4bad365cf964a520c6393be3,The Stag and Hounds,371 Bury St W,Enfield,,N9 9JW,Pub,51.6336569,-0.0727636,0.9213572343149808,1.0,7.4,3790.7449834495283,1743.5061086960948,38
326,4c5b183367ac0f47855c084c,Jolly Butchers,168 Baker St,Enfield,Enfield,EN1 3JS,Pub,51.659445,-0.079876,0.9421161680828776,1.0,6.9,3832.4427429659313,470.3301770325709,59
327,4bc6009351b376b0f0cd1a6f,The Old Wheatsheaf,3 Windmill Hill,London,Enfield,EN2 6SE,Pub,51.653768,-0.089591,0.9489954603654988,1.0,6.8,3005.227232542845,670.0434606535495,81
328,4bdb2e403904a593ce24499e,The Moon Under Water,115-117 Chase Side,Enfield,Enfield,EN2 6NN,Beer Bar,51.658929,-0.087722,0.9622209288790596,1.0,6.7,3308.083363129789,664.8341772414147,31
329,5a3bd1c1c0f16341afe1f380,O'Neill's,5 The Town,Enfield,,EN2 6LE,Pub,51.651818,-0.081325,0.9542637644046096,,6.4,3525.2602263924523,386.56304769104287,152
330,4bb60a632ea195216b09ab2f,Rose & Crown,185 Clay Hill,Enfield,Enfield,EN2 9AJ,Pub,51.67126,-0.083766,0.9439972063787684,1.0,7.0,4251.802160429621,1800.8989397845817,4
331,4bd729214e32d13aaad8c380,Crown & Horseshoes,12-15 Horseshoe Lane,Enfield,Enfield,EN2 6PZ,Pub,51.656036,-0.087194,0.9161750669305088,1.0,6.5,3231.9441377378866,493.39279111798214,75
332,4ba295caf964a520a60638e3,The Salisbury Arms,Hoppers Rd,London,Winchmore Hill,N21 3NP,Pub,51.63301,-0.103004,0.9744360377138866,1.0,7.1,1702.3897341305558,508.0134162546444,18
333,4b6c6347f964a520eb352ce3,The Stag,1 Little Park Gardens,Enfield,Enfield,EN2 6PH,Arts and Entertainment,51.65287,-0.086742,0.9532673728320336,1.0,5.8,3175.938622456576,523.594654126778,102
334,4c1bb916eac020a1f45445c2,The Sporting Green,129 Hertford Rd,Enfield,Enfield Lock,EN3 5JF,Pub,51.656702,-0.047118,0.9201489931323478,1.0,6.5,5941.361602255277,2285.5830072524504,100
335,4c0ebb152466a59315897921,The George,5 The Town,London,Enfield,EN2 6LE,Pub,51.651976,-0.081412,0.0215341636596438,1.0,5.5,3521.8116909054843,370.74104199426046,151
336,4ad77cb7f964a520580b21e3,Cricketers Arms,Enfield,Enfield,,,Pub,51.652045,-0.083482,0.00856012105692,1.0,,3381.727841866565,420.6619639663428,118
337,4cd32396ecc3a09368cf9893,The Kings Head,Marketsquare,Enfield,,,Pub,51.653767,-0.083623,0.6020277034105459,1.0,,3406.7026804402326,288.11105724044245,114
338,4bf440a9706e20a11e20a998,The Ridgeway Tavern,76 The Ridgeway,Enfield,Enfield,EN2 8JF,Pub,51.662837,-0.10407,0.9384541962518916,1.0,6.2,2577.083156163599,1853.8536296594077,118
339,4edd48402c5b50aba2076c7e,The Southbury,,Enfield,,,Pub,51.659562,-0.071264,0.4757560237457804,1.0,,4397.932901771546,781.1055592863418,46
340,4db1bc280437a93f7f905422,The Hollybush,1-9 Brigadier Hill,Enfield,,EN 2 0,Pub,51.663698,-0.086185,0.9709486672098708,1.0,,3638.9897128050925,1030.244502319687,62
341,4caf5efb562d224ba7850d88,The Hop Poles,Lancaster Rd,Enfield,,EN2 0JS,Pub,51.664716,-0.076745,0.967249447095798,1.0,,4265.964905698023,1082.0328081954972,56
342,4bad0901f964a520d6263be3,Bush Hill Park Pub,,,,,Pub,51.641469,-0.068829,0.1357909440111744,1.0,,4182.75907516964,1717.3379943667494,47
343,4bd00b43a8b3a593e33e635f,Black Horse,179 Hertford Rd,Enfield,Enfield,EN3 5JH,Pub,51.658437,-0.046975,0.9809940635548832,1.0,,5987.548678444819,2317.2415017409908,123
344,4e6fb380483bd41a3de30c84,The Rising Sun,240 Winchester Rd,Enfield,Edmonton,N9 9EF,Pub,51.631208,-0.065187,0.9931626120358514,1.0,,4313.245311973636,2224.0514153033782,94
345,4ba66a81f964a5201c5039e3,The Orange Tree,18 Highfield Rd,Enfield,Winchmore Hill,N21 3HA,Pub,51.62901,-0.0959,0.883375625654755,1.0,,2223.6277259695908,155.74719483610505,38
346,4b6ef478f964a5200ed32ce3,Cutty Sark Tavern,4-6 Ballast Quay,Greenwich,Greenwich,SE10 9PD,Pub,51.486376,-0.000292,0.9762891397974623,2.0,8.9,1600.0412931849694,570.7459306830323,58
347,4b9ae558f964a520a7e035e3,Plume of Feathers,19 Park Vista,Greenwich,Greenwich,SE10 9LZ,Pub,51.48197,-0.000874,0.9340635548830172,1.0,8.1,2090.195491396281,776.1788099942307,33
348,4b543769f964a520c2b427e3,The Duke,125 Creek Rd,Deptford,Deptford,SE8 3BU,Pub,51.481192,-0.020377,0.9642346641834478,2.0,8.6,1027.58355534092,797.7497791967668,107
349,4ac518dbf964a520eba820e3,Trafalgar Tavern,Park Row,Greenwich,Greenwich,SE10 9NW,Lounge,51.484464,-0.004294,0.990981259457572,2.0,7.9,1871.3766289757532,590.3888801664889,37
350,59ba5b0d2079551e2bffaf57,The River Ale House,131 Woolwich Rd,Greenwich,,SE10 0RJ,Pub,51.486287,0.013286,0.9931230357350715,1.0,8.7,1722.9354669789477,293.24634807480805,81
351,4af5ebc6f964a520d7fe21e3,The Vanbrugh,91 Colomb St,Greenwich,Greenwich,SE10 9EZ,Pub,51.483457,0.008083,0.9689977883831916,1.0,8.2,1926.929351898397,693.7174968403518,68
352,4b3a4287f964a520256325e3,Richard the First,52-54 Royal Hill,London,Greenwich,SE10 8RT,Beer Bar,51.476648,-0.009698,0.9524246304271912,1.0,8.1,1676.7397976024363,150.71204970262326,98
353,4b1a7b28f964a520efea23e3,The Dog & Bell,116 Prince St,Deptford,Deptford,SE8 3JD,Pub,51.483374,-0.02591,0.9761145384704925,1.0,8.7,866.892019396943,598.518685700026,82
354,4b43bfa7f964a52057e825e3,The Gipsy Moth,60 Greenwich Church St,London,Greenwich,SE10 9BL,Beer Garden,51.48227,-0.009748,0.9784984285880572,2.0,7.8,1758.1013949710862,477.2275924277155,100
355,4b40f6c3f964a5205ebe25e3,The Greenwich Union,56 Royal Hill,London,Greenwich,SE10 8RT,Pub,51.47643,-0.00974,0.7070701897334419,2.0,8.0,1675.1647196222036,174.2282825261107,89
356,4c2e5364a0ced13a88a40e6e,Royal Albert,460 New Cross Rd,New Cross,New Cross,SE14 6TJ,Pub,51.4751632,-0.0286207,0.9701105808404143,1.0,8.7,438.85083744644453,522.6571328898498,197
357,57c5dd14498e8d1389684ad6,The Brookmill,65 Cranbrook Rd,London,Lewisham,SE8 4EJ,Beer Bar,51.470842,-0.022017,0.955807240135025,1.0,8.5,1095.9215449333487,1079.4111977778448,138
358,53937daf498eb0e46cf0882f,Job Centre,120-122 Deptford High St,Deptford,Deptford,SE8 4NS,Pub,51.478351,-0.025767,0.923906413688744,1.0,8.2,572.6146285692179,433.99072296551134,162
359,4b773baef964a5202d8a2ee3,The Bird's Nest,32 Deptford Church St,Deptford,Deptford,SE8 4RZ,Hotel Bar,51.476173,-0.02252,0.9388569433127693,1.0,8.1,797.9124682353915,737.0403952791688,134
360,4bd20cd49854d13affd4fa4d,The Pelton Arms,23-25 Pelton Rd,Greenwich,Greenwich,SE10 9PQ,Pub,51.486786,0.002794,0.9835711791409616,2.0,7.7,1532.6171463276155,730.2828660525521,81
361,4bd46aab7b1876b0faee8886,The Guildford Arms,55 Guildford Grove,London,Greenwich,SE10 8JY,Pub,51.474197,-0.01604,0.9545058782446748,1.0,7.7,1284.8392912905251,589.8738027949531,125
362,4ce7fbe3d99f721eac8cad73,Greenwich Tavern,1 King William Walk,London,Greenwich,SE10 9JH,Pub,51.479844,-0.007202,0.983198696310092,1.0,7.4,1868.132880196904,287.0196771267176,102
363,4baf96b5f964a5209f0d3ce3,The Ship & Whale,2 Gulliver St,London,Rotherhithe,SE16 7LT,Pub,51.496846,-0.034081,0.9633849377255268,1.0,8.5,1037.4259868772454,1140.6943550249725,24
364,4b2fe171f964a520e1f124e3,Princess of Wales,1a Montpelier Row,London,Blackheath,SE3 0RL,Pub,51.469343,0.010453,0.9677546269351648,1.0,8.0,3197.5420125689766,656.0926953114785,34
365,4b645d57f964a52084ad2ae3,Coach & Horses,13 Greenwich Market,London,Greenwich,SE10 9HZ,Pub,51.481547,-0.009,0.9795134443021768,1.0,7.2,1784.8046577343634,403.21815580107307,116
366,4ad0c5dcf964a520b4d920e3,Kings Arms,16 King William Walk,London,Greenwich,SE10 9JH,Beer Garden,51.480781,-0.008003,0.9573972762192992,1.0,7.1,1832.0177821161797,342.58943171096865,117
367,4cd3424c08f48cfa20469f85,The Ship,290 Westferry Rd,London,Millwall,E14 3AG,Pub,51.487743,-0.01785,0.9682318705622164,1.0,7.4,1601.4424161790723,792.2319863492463,45
368,4c5d4fd985a1e21e89fe5811,Rose of Denmark,296 Woolwich Rd,Charlton,Charlton,SE7 7AL,Pub,51.487224,0.026848,0.9796624374345244,1.0,7.7,2188.4541844612654,673.9022712993552,83
369,4bdc94beccf52d7f5b6c786d,Ashburnham Arms,25 Ashburnham Grove,London,Greenwich,SE10 8UH,Pub,51.475746,-0.015279,0.9453847049237574,1.0,7.1,1300.8378418175946,437.9682142638287,124
370,4b228701f964a5205c4824e3,The Royal Standard,44 Vanbrugh Park,Blackheath,Blackheath,SE3 7JQ,Pub,51.476802,0.018752,0.979541380514492,1.0,7.2,2842.4555926986473,995.5798765844581,55
371,4b89a9eaf964a520234a32e3,The Dacre Arms,11 Kingswood Pl,Blackheath,Lewisham,SE13 5BU,Arts and Entertainment,51.461017,0.003367,0.9821906646490514,1.0,7.3,3156.051818698885,961.1896354735171,63
372,4b0803f0f964a5204e0223e3,Fox & Firkin,316 Lewisham High St,London,Lewisham,SE13 6JZ,Pub,51.456978,-0.01409,0.9893702712140612,1.0,7.4,2649.068905090399,792.8053049377157,171
373,4bae253ef964a520c1893be3,Ye Olde Rose & Crown Greenwich,1 Crooms Hill,London,Greenwich,SE10 8ER,Gay Bar,51.479438,-0.007815,0.9313770224653708,1.0,6.5,1819.8921600815977,225.05514761821357,103
374,4b5494c1f964a5200ac127e3,The Yacht,5 Crane St,Greenwich,Greenwich,SE10 9NP,Pub,51.484648,-0.003816,0.9468769642649284,1.0,6.4,1842.3228468769794,581.6807135499415,38
375,4bc20cf2920eb7134b881b2c,The Crown,49 Tranquil Vale,Blackheath,Blackheath,SE3 0BS,Pub,51.466605,0.007321,0.9665556978233034,1.0,6.9,3094.3998976153352,767.6353552298973,43
376,4c5741066201e21e0d1b766e,The Walpole,407 New Cross Rd,New Cross,New Cross,SE14 6LA,Pub,51.476014,-0.033137,0.9132021883366314,1.0,6.9,158.62099821360283,388.9779985997874,175
377,4c221e7199282d7f5e9066b0,The Ferry House,26 Ferry St,London,Millwall,E14 3DT,Pub,51.48654,-0.013367,0.9663857525317192,1.0,6.5,1749.1142099340589,565.3050465354268,62
378,4ba529bef964a52025e638e3,The Gate Clock,275 Creek Rd,London,Greenwich,SE10 9RB,Pub,51.481517,-0.010847,0.9905063438482132,1.0,6.4,1660.722731137308,396.5927899273605,127
379,5e64276634be860008328fc8,The Observatory,Entertainment Ave North Greenwich,Greater London,Greenwich,SE10 0DY,Pub,51.503961,0.00357,0.9710185077406588,1.0,7.0,378.1801687841649,1352.8766253990805,39
380,5cba1d2ac876c80039dd9838,The Oystercatcher,7 Victoria Parade,London,,SE10 9FR,Pub,51.482964,-0.014723,0.9429635665231056,1.0,6.4,1465.6596970930214,640.6340559621448,127
381,4c015e0f716bc9b61eb8bb55,Hardys Freehouse,92 Trafalgar Rd,Greenwich,Greenwich,SE10 9UW,Pub,51.483967,0.001441,0.92735420789198,,6.2,1851.1046234144533,841.6476353889218,65
382,607b19f347704242712de638,Enderby House,23 Telegraph Ave,London,,SE10 0TH,Pub,51.490425,0.003124,0.9673705040158304,1.0,6.4,1127.4437952574974,692.6206231635603,38
383,4c0a3e4d3c70b713e9f3275b,Anchor & Hope,2 Riverside Walk,Charlton,Charlton,SE7 7SS,Pub,51.493575,0.02862,0.9629775346292632,1.0,6.8,1898.1880060104265,1168.1975285405763,2
384,5a1715646dcf0423137a0cbe,Suttons Radio,139-141 Lewisham High St,London,Lewisham Central,SE13 6AA,Arts and Entertainment,51.46032,-0.010774,0.8636130834594343,1.0,6.4,2480.601564827359,370.82498795099116,190
385,4b17e64bf964a5206ac923e3,Admiral Hardy,7 College Approach,London,Greenwich,SE10 9HY,Pub,51.481971,-0.009199,0.8663531602840182,1.0,5.6,1784.4578598922785,447.5668025770595,118
386,5055f06de4b0e5434d5d5b27,Gold and Saddle,King William Walk,,,S E10,Pub,51.479844,-0.007202,0.6706879292282621,1.0,,1868.132880196904,287.0196771267176,102
387,4b6ebfb2f964a520e2c82ce3,The Brockley Barge,184 Brockley Rd,Brockley,Brockley,SE4 2RR,Pub,51.464126,-0.036442,0.9960121056920032,1.0,6.3,1333.463317153108,339.90583601772624,78
388,4dd7b45b1f6ee14683287647,The Watermans Arms,1 Glenaffric Ave,Isle of Dogs,Poplar,E14 3BW,Arts and Entertainment,51.488653,-0.006132,0.9592387382144104,1.0,,1485.5616325553758,108.63018649231613,39
389,4c370bf6dfb0e21e86ffaba8,The Morden Arms,1 Brand St,London,Greenwich,SE10 8SP,Pub,51.476888,-0.011564,0.919462227912932,1.0,,1546.5212349183334,159.60348881886293,115
390,4ac518c0f964a5209ca320e3,Spanish Galleon,48 Greenwich Church St,London,Greenwich,SE10 9BL,Beer Bar,51.481671,-0.009839,0.8850517983936678,1.0,5.2,1732.5367702052338,410.41024061725415,116
391,4ac518c6f964a52012a520e3,The Amersham Arms,388 New Cross Rd,New Cross,New Cross,SE14 6TY,Pub,51.475719,-0.032494,0.9645349784658364,1.0,5.9,206.52864777579407,414.13808323351947,187
392,4d4d3fe913d88cfa8c8e06da,Mourinho's,299 Manchester Rd,London,Poplar,E14 3HN,Pub,51.492255,-0.006589,0.8472005587242463,1.0,,1162.0311486945661,150.03217337570752,42
393,4bb63f21f562ef3b70da2f97,The Railway,16 Blackheath Village,Blackheath,Blackheath,SE3 9LE,Pub,51.465651,0.008934,0.9692631824001864,1.0,5.9,3238.933484269002,911.1766421152087,43
394,4b703db2f964a520700d2de3,The Wickham Arms,69 Upper Brockley Rd,Brockley,Brockley,SE4 1TF,Pub,51.468624,-0.032697,0.9562588755674544,1.0,6.0,967.9622267733029,893.2478454684025,72
395,4cf023c48333224b8951028e,The Graduate,107-109 Blackheath Rd,London,Greenwich,SE10 8PD,Pub,51.4732,-0.015367,0.950697241299034,1.0,,1363.288819344482,645.9424170818673,123
396,4c056bb591d776b00265f7f9,The Lord Nelson,1 Manchester Rd,Isle of Dogs,Millwall,E14 3BD,Pub,51.487362,-0.013141,0.8469747410080316,1.0,5.2,1816.306232015378,502.84008405807515,54
397,4bf41d086a31d13aa45d952e,The Watch House,198-204 Lewisham High St,London,Lewisham,SE13 6JP,Pub,51.459952,-0.01173,0.9347316959608892,1.0,5.9,2470.3380463730055,426.3567052221541,186
398,4b6c6a47f964a52044382ce3,Marquis of Granby,322 New Cross Rd,New Cross,New Cross,SE14 6AG,Pub,51.475564,-0.035881,0.9502828541496916,1.0,5.8,243.28645223521116,510.7330522302197,127
399,4e8ddba54fc653e47d21ed7d,White Swan,217 Deptford High St,London,Deptford,SE8 3NT,Arts and Entertainment,51.480858,-0.026527,0.8632382726108718,1.0,,640.6618762679319,397.59823546245764,121
400,4d65502f4e1ea1cdb3204fb9,The Cranbrook,65 Cranbrook Rd,London,Lewisham,SE8 4EJ,Pub,51.471231,-0.022969,0.3018274938889536,1.0,,1017.9216812814852,1097.3616291883777,149
401,4c6bd919599fbe9a3c7e933f,The Little Crown,495 New Cross Rd,London,New Cross,SE14 6TQ,Pub,51.475163,-0.026886,0.9144569898731232,1.0,,542.7542785227334,583.4055443672914,188
402,54da70f4498e72aeca0158f3,Crown & Sceptre,92 Friendly St,London,,SE8 4DR,Arts and Entertainment,51.472031,-0.024403,0.6929880107088814,1.0,,884.5868587332463,968.7336446090843,150
403,5c7c407e65211f002c3a671e,Acrotex Limited,443 New Cross Rd,New Cross,,SE14 6TA,Music Venue,51.475822,-0.030235,0.6686695378884879,1.0,,305.19836455360166,415.28665121797195,213
404,4d8cf48bcb9b224be04e6141,Royal Standard,86 Tanners Hill,London,Deptford,SE8 4PN,Arts and Entertainment,51.4736211,-0.0272475,0.8893586311255965,1.0,,619.8676873215165,718.3601450640639,176
405,56902c06498ee136327a6816,The Anchor,165 Lewisham Rd,London,Lewisham,SE13 7PY,Karaoke Bar,51.465733,-0.010678,0.8692957746478873,1.0,,2062.8564853388693,209.73331581025087,190
406,4afb317bf964a520f51b22e3,The Henry Addington,22-28 Mackenzie Walk,London,Canary Wharf,E14 4PH,Pub,51.50447,-0.022204,0.9768990804330112,1.0,5.8,187.16436170272536,1616.9264973426134,131
407,4cc1c6da91413704e980af55,Royal George,85 Tanners Hill,Deptford,Deptford,SE8 4QD,Pub,51.472001,-0.028629,0.9298544988941916,1.0,,698.4525547986894,854.477759146869,163
408,4ba3b421f964a520585638e3,The Tooke Arms,165 Westferry Rd,London,Poplar,E14 8NH,Pub,51.498207,-0.025564,0.8495355604702596,1.0,5.6,719.460892551067,1403.7518044048309,177
409,4e74ffbd8998ed82a4542098,Take Courage New Cross,,London,,,Pub,51.475608,-0.032561,0.5770038412291933,1.0,,215.51951800564174,426.90287929292856,187
410,4df3da0b45dd4e2693423ac7,Joiners Arms,66 Lewisham High St,London,Lewisham,SE13 5JH,Pub,51.463136,-0.010705,0.9654964497730184,1.0,,2253.838818836885,78.03226112862107,214
411,60e8894245886b2bf7487cca,The Victoria,177 Grove St,London,Deptford,SE8 3QQ,Pub,51.487904,-0.034496,0.9786311255965544,1.0,,1141.5707232937636,960.1242740084516,94
412,4ee4b4c9754a7cc6f60dc574,Sun in the Sands,123 Shooters Hill Rd,London,Blackheath,SE3 8UQ,Pub,51.475101,0.025397,0.8507321615644279,1.0,,3208.0800824258254,1303.278596467935,52
413,4ba4f655f964a52029c938e3,O'Neill's,52 Tranquil Vale,London,Blackheath,SE3 0BH,Pub,51.466742,0.007953,0.9117285531370038,,5.3,3129.031150991923,772.2514083827131,43
414,4fdb8783e4b0c183ab78edb1,Fridays,163 Marsh Wall,London,Poplar,E14 9SJ,Pub,51.501835,-0.023079,0.9068979164241648,1.0,,297.87729495082914,1458.1147685615863,186
415,4baa8408f964a520a5703ae3,The Ship York,375 Rotherhithe St,London,Rotherhithe,SE16 5LJ,Pub,51.49872,-0.034495,0.8963915725759516,1.0,5.6,1054.7048524106763,1145.578694118465,23
416,4cfe7603ee9cb60c94e79fad,The Old Tigers Head,351 Lee High Rd,Lee Green,Lee,SE12 8RU,Night Club,51.457491,0.009082,0.949342335001746,1.0,5.7,3706.7217168027937,1478.6723658088165,87
417,5802a69cd67cb63bf31f71de,The Merchant,,London,,E14 4DH,Pub,51.506206,-0.022061,0.2110254917937376,1.0,5.6,325.08730906815356,1759.8317241687366,115
418,4da98bf3cda1652a2b75abef,Bugle Horn,6 The Village,London,Charlton,SE7 8UD,Pub,51.481603,0.036499,0.87896868816203,1.0,,3103.452196182153,1398.025349082945,50
419,4bfedfa968c7a5935fd03f44,Duke of Edinburgh,394 Lee High Rd,London,Lee,SE12 8RW,Pub,51.456841,0.009052,0.9423582819229426,1.0,,3748.624603084313,1511.4804683817742,87
420,4be1d60ea145c928a7bc4e80,The Steamship,24 Naval Row,Poplar,Poplar,E14 9PS,Pub,51.509006,-0.005617,0.9883436154114772,1.0,,1135.3306661013341,1714.3265049597132,130
421,4bae5e03f964a520c7a83be3,The Moby Dick,6 Russell Pl,London,Rotherhithe,SE16 7PL,Pub,51.495742,-0.03933,0.9783564195087884,1.0,5.4,654.053523799888,776.0499785906791,54
422,4acf71fbf964a520b9d320e3,The Fine Line,29-30 Fishermans Walk,London,Canary Wharf,E14 4DH,Pub,51.505946,-0.021854,0.555129786986381,1.0,5.2,292.8328584176578,1728.1549583936576,115
423,55953999498e3c823cc91116,The Chesham Arms,15 Mehetabel Rd,London,Homerton,E9 6DU,Pub,51.547589,-0.050124,0.9549505296240252,1.0,9.4,479.80167334839564,573.143644409332,286
424,4b65d55ff964a520ca022be3,The Kenton,38 Kenton Rd,Hackney,Homerton,E9 7AB,Pub,51.54412,-0.04436,0.9577162146432312,3.0,8.5,340.4502058892161,895.0117369285613,180
425,4c2f8cd43896e21e1c24e490,The Hemingway,84 Victoria Park Rd,Hackney,Homerton,E9 7JL,Pub,51.537265,-0.048908,0.9561354906297288,2.0,8.3,1161.9634124946667,939.5688405826236,107
426,4c5d9f90857ca593f45fcdcb,The Cock Tavern,315 Mare St,Hackney,Hackney,E8 1EJ,Beer Bar,51.546271,-0.055325,0.9847398440228146,2.0,8.2,187.0369645073507,198.28297161089037,187
427,5228cabd11d2164a106f3cad,The Plough,23-25 Homerton High St,London,Homerton,E9 6JP,Beer Bar,51.548187,-0.047651,0.9658712606215808,1.0,8.2,328.7313858461523,754.6460494150218,272
428,59f6041f1ffed71a14408cfd,The Spread Eagle,Homerton High St,London,Wick,E9 6AS,Pub,51.54861,-0.040705,0.9698707950180422,1.0,8.4,242.23237897878067,1213.6665868767245,294
429,534000f5498e37d3658f0a9e,The Cat & Mutton,76 Broadway Market,Hackney,Dalston,E8 4QJ,Pub,51.537473,-0.060963,0.9890047724362704,1.0,8.3,1069.165242547507,865.8551457504426,177
430,4c549f54fd2ea593b533612a,The Adam & Eve,155 Homerton High St,London,Homerton,E9 6AS,Beer Bar,51.548897,-0.040347,0.9865254335932954,2.0,8.2,282.2561492682415,1247.8949481075995,294
431,4ad09812f964a520a3d820e3,The Lauriston,162 Victoria Park Rd,London,Homerton,E9 7JN,Beer Bar,51.537868,-0.045151,0.9624281224537308,1.0,8.0,1035.1134252072773,1147.5851349986488,86
432,4ac518c6f964a52032a520e3,The Pembury Tavern,90 Amhurst Rd,London,Hackney,E8 1JH,Pub,51.549338,-0.059227,0.9864183447794204,2.0,8.1,288.60720661270915,507.9577053564666,214
433,4fabfa98e4b0f1115f45a1cd,Clapton Hart,231 Lower Clapton Rd,Hackney,Clapton,E5 8EG,Pub,51.557694,-0.056147,0.9894633919217786,2.0,8.7,1207.040953820704,1284.8535489931808,137
434,4af2bf34f964a5205be821e3,The Prince Arthur,95 Forest Rd,London,Hackney,E8 3BH,Beer Bar,51.544183,-0.065576,0.963515306716331,1.0,8.2,613.8248951576701,582.9296608753516,110
435,52b47ed2498e43984ea0c7de,The Kings Arms,11A Buckfast St,London,Bethnal Green,E2 6EY,Pub,51.525615,-0.066083,0.9684739844022816,2.0,9.3,783.5290329659474,842.7095038614236,204
436,4bdf05a1e75c0f4758a2c903,The People's Park Tavern,360 Victoria Park Rd,London,Homerton,E9 7BT,Pub,51.541605,-0.037833,0.982944942381562,1.0,8.0,715.9851172804031,1392.0749521994287,65
437,4c056af8761ac9b6cb7e1f74,The Three Compasses,99 Dalston Lane,Dalston,Hackney,E8 1NH,Beer Bar,51.548327,-0.068364,0.9700081480619251,1.0,8.3,720.9285584483931,466.623294140078,184
438,4ac518c4f964a5206aa420e3,The Palm Tree,127 Grove Rd,London,Mile End,E3 5BH,Pub,51.52916735,-0.0406931151062501,0.960675125130951,1.0,8.5,658.7661984185165,900.8346917955482,158
439,5172c8ac498e0949bed12268,Star by Hackney Downs,35 Queensdown Rd,Greater London,Clapton,E5 8NN,Cocktail Bar,51.55308,-0.05777,0.9525480153649168,2.0,8.1,688.3145643624692,905.7725026100782,168
440,4b462efbf964a5205a1926e3,The Approach Tavern - Remarkable Restaurants,47 Approach Rd,London,,E2 9LY,Pub,51.531212,-0.051224,0.9667605633802816,1.0,8.2,520.2797527498967,375.179268382077,147
441,4ace3ee6f964a5205fcf20e3,The Scolt Head,107a Culford Rd,Islington,Islington,N1 4HT,Beer Garden,51.543346,-0.08157,0.9773879641485276,2.0,8.8,585.5410606975383,46.70190128558395,124
442,4ad09b96f964a520b9d820e3,The Crown,223 Grove Rd,London,Bow,E3 5SN,Lounge,51.532945,-0.041649,0.9672028867419392,2.0,8.1,1020.5667946064191,982.7878311820714,78
443,5b6f348e1ffe97002cc9eccf,Bethnal Green Tavern,456 Bethnal Green Rd,London,,E2 0EA,Pub,51.52699,-0.058468,0.977767431032476,1.0,8.4,238.08628030872816,360.76578739142775,253
444,592af90c4a1cc037f24fed68,The Axe,18 Northwold Rd,London,,N16 7HR,Pub,51.562816,-0.071902,0.97527179606565,1.0,9.1,1680.7573644174377,583.0552394822272,119
445,56c2499fcd105aa983234188,Lady Mildmay,92 Mildmay Park,London,Islington,N1 4PR,Pub,51.550723,-0.084589,0.9836852520079152,1.0,8.9,481.84720438067075,769.4839349715285,144
446,4ad773bdf964a520b40a21e3,The Dove,24-28 Broadway Market,London,East End / East London,E8 4QJ,Pub,51.536524,-0.061634,0.9870259573972762,2.0,7.9,1134.716643035684,788.6908679661383,199
447,52d2ca1311d2ad382c85c549,Hand of Glory,240 Amhurst Rd,Dalston,Hackney,E8 2BS,Pub,51.55375,-0.06799,0.967070189733442,1.0,8.3,960.3067686561939,482.3974732765211,131
448,4b85a330f964a5202f6a31e3,The Crooked Billet,84 Upper Clapton Rd,Hackney,Clapton,E5 9JP,Pub,51.562077,-0.05723,0.9869142125480154,2.0,8.5,1689.2462282603817,1296.8201418920312,173
449,4e240dd93151306f89294146,The Railway Tavern Ale House,2 St Jude St,Dalston,Stoke Newington,N16 8JT,Pub,51.548916,-0.079184,0.9843627051565592,2.0,8.4,71.65359770623698,461.67090534483407,201
450,4b09790ef964a520d11723e3,The Royal Oak,73 Columbia Rd,London,Bethnal Green,E2 7RG,Pub,51.52952,-0.069382,0.973458270282854,2.0,8.3,1025.6955096232448,900.8478732883817,213
451,4ace469bf964a52095cf20e3,The Prince George,40 Parkholme Rd,Dalston,Hackney,E8 3AG,Pub,51.544769,-0.068151,0.9693702712140612,1.0,7.9,751.0083690263854,755.1100290288675,112
452,511e7cd0e4b0eaecfc0f759c,Well & Bucket,143 Bethnal Green Rd,London,Shoreditch,E2 7DG,Cocktail Bar,51.525392,-0.070982,0.9776370620416716,2.0,8.5,1032.0154681348715,808.1809304355572,241
453,4adf7396f964a520af7a21e3,Howl at the Moon,178 Hoxton St,Hoxton,Shoreditch,N1 5LH,Music Venue,51.533098,-0.079843,0.9728855779303924,2.0,8.4,934.362318142685,375.87875884871653,165
454,4b61f545f964a520882d2ae3,The Talbot,109 Mortimer Rd,Dalston,Islington,N1 4JY,Pub,51.542808,-0.07915,0.9668420439995344,2.0,8.2,613.4126440428851,195.68238543232496,142
455,4ac518c5f964a520c6a420e3,The Camel,277 Globe Rd,London,Bethnal Green,E2 0JD,Beer Bar,51.528898,-0.052176,0.969132813409382,1.0,8.0,275.22256339623476,127.5455511625897,215
456,4ad3b332f964a520b9e520e3,The George & Vulture,63 Pitfield St,London,Shoreditch,N1 6BU,Pub,51.52908,-0.083756,0.9786078454196252,2.0,8.5,414.03669685165835,422.6603056618396,392
457,4af2be6df964a5205ae821e3,Shacklewell Arms,71 Shacklewell Lane,Dalston,Shacklewell,E8 2EB,Beer Bar,51.552351,-0.071409,0.9741590036084274,2.0,8.0,679.2403532218112,201.83764812374355,174
458,4ac518c5f964a520d8a420e3,The Draft House Birdcage,80 Columbia Rd,London,Bethnal Green,E2 7QB,Beer Bar,51.528425,-0.070874,0.9872401350250262,1.0,8.2,1104.0832217859145,1020.4113556242244,238
459,5aad39d10a08ab4a09d01ffc,Bergen House,47 Newington Green,London,,N16 9PX,Pub,51.55169,-0.085924,0.9596740775229892,1.0,8.2,619.47020501532,863.5981544596966,145
460,4ae4602ff964a520319a21e3,The Snooty Fox,75 Grosvenor Ave,Canonbury,Highbury,N5 2NN,Pub,51.549117,-0.09134,0.974352229076941,2.0,8.4,358.5045407647389,737.2438414331147,120
461,4ba52a82f964a52096e638e3,Auld Shillelagh,105 Stoke Newington Church St,London,Stoke Newington,N16 0UD,Pub,51.561981,-0.07956,0.9738680013968106,1.0,8.1,1471.4089099112375,565.5423204840649,91
462,4b2c184ff964a5207fc124e3,Duke of Wellington,260 Haggerston Rd,London,Hackney,E8 4EP,Pub,51.540191,-0.074881,0.9638109649633336,1.0,7.6,943.4601191509644,520.2540328651829,155
463,4ae9e788f964a52076b721e3,The White Hart,69 Stoke Newington High St,London,Stoke Newington,N16 8EL,Pub,51.559027,-0.074396,0.9604725875916656,2.0,7.8,1228.7144722153794,130.05170548836202,146
464,5144b2d5e4b0a3e6f6893659,Angel & Crown,170 Roman Rd,London,Bethnal Green,E2 0RY,Pub,51.529309,-0.045515,0.9854429053660808,1.0,7.5,700.1535606452101,574.3968175031172,169
465,4ad09628f964a52095d820e3,Royal Inn on the Park,111 Lauriston Rd,London,Homerton,E9 7HJ,Pub,51.536709,-0.043293,0.9764846932836688,2.0,7.2,1155.436293141306,1159.123812643444,54
466,4cc1f77bbde8f04db9559b4b,The Victoria,451 Queensbridge Rd,Dalston,Dalston,E8 3AS,Concert Hall,51.54571,-0.070052,0.9854941217553254,1.0,7.4,670.3097588829369,641.0516803010574,181
467,4bddb6beffdec928c51ce6a1,The Tiger,245 Wick Rd,London,Homerton,E9 5DG,Pub,51.545334,-0.035466,0.9896729135141428,1.0,7.2,571.6686530358105,1506.0037619400314,180
468,4b4e0ab9f964a5204adf26e3,The Alma,59 Newington Green Rd,London,Islington,N1 4QU,Beer Bar,51.548417,-0.087735,0.9590874170643696,2.0,7.8,594.0323367045547,722.2537720220407,144
469,4c9a5a6e80958cfae43342d4,The Edinburgh Cellars,125 Newington Green Rd,Greater London,Islington,N1 4RA,Pub,51.550582,-0.086508,0.9706087766267024,1.0,7.8,589.9675358843191,899.3631553242757,135
470,4ad9e432f964a520a31b21e3,The Coborn Arms,8 Coborn Rd,London,Bow,E3 2DA,Arts and Entertainment,51.527033,-0.030144,0.9332045163543244,1.0,7.6,299.7544724899957,459.1601138531249,151
471,52a240d711d2761b153af949,Farr's School of Dancing,17-19 Dalston Lane,Dalston,Dalston,E8 3DF,Pub,51.546398,-0.073939,0.9765335816552204,1.0,7.4,397.73718441916475,520.2755102608257,221
472,4b77e71cf964a5202dae2ee3,The Princess of Wales,146 Lea Bridge Rd,London,Clapton,E5 9QB,Pub,51.561893,-0.045795,0.9790501687812828,1.0,7.6,1654.440668655216,2044.2003982794392,55
473,5769a02538faed0583028f43,Rusty Bike,588 Mile End Rd,London,"Mile End, Greater London",E3 4PH,Pub,51.52525,-0.032513,0.9783890117564894,1.0,7.6,66.56839308630147,619.1401679565665,125
474,4ad6373ff964a520c90521e3,The Prince,59 Kynaston Rd,London,Stoke Newington,N16 0AB,Pub,51.559989,-0.078209,0.9655918984984286,1.0,7.7,1298.1570273158823,336.22533868776856,109
475,4b2283a0f964a5201e4824e3,The Three Crowns,175 Stoke Newington High St,London,Stoke Newington,N16 0LH,Pub,51.562136,-0.073783,0.9704015830520312,1.0,7.5,1574.7891996491244,478.1934115003515,106
476,4b05deb4f964a520d6e422e3,The Shakespeare,57 Allen Rd,London,Stoke Newington,N16 8RY,Pub,51.555497,-0.081863,0.9822092887905948,1.0,7.4,825.8472583146732,559.6077143684477,120
477,4ac518c6f964a52013a520e3,The Old Blue Last,38 Great Eastern St,Shoreditch,Shoreditch,EC2A 3ES,Night Club,51.524328,-0.080055,0.9902781981143056,2.0,7.3,555.3467393492174,628.9049747735262,447
478,4ad36929f964a5203ee420e3,The Reliance,336 Old St,Shoreditch,Shoreditch,EC1V 9DR,Pub,51.526591,-0.081425,0.9497637062041672,2.0,6.9,423.43670686278244,481.2868765490556,468
479,4b9259e4f964a520d4f333e3,Anchor & Hope,15 High Hill Ferry,Hackney,Clapton,E5 9HG,Pub,51.567965,-0.052538,0.9637062041671516,1.0,6.8,2258.7341754434,1900.4635360661207,69
480,4b7828bdf964a52000b92ee3,The Hare,505 Cambridge Heath Rd,Hackney,Bethnal Green,E2 9BU,Pub,51.533415,-0.057483,0.9796182050983588,1.0,6.3,713.6003755951048,362.96691733850656,158
481,4c87ab84821e9eb06fcd8d89,The Half Moon,213-223 Mile End Rd,London,Stepney,E1 4AA,Cocktail Bar,51.522235,-0.04534,0.9829775346292632,1.0,6.5,92.11658236330777,875.006089812026,231
482,4c07ac0f8a81c9b6b98a2790,The Little Driver,125 Bow Rd,London,Bow,E3 2AN,Pub,51.527811,-0.022526,0.9898894191595856,1.0,6.5,177.7976782932755,74.9016984026679,206
483,4b5af3bdf964a520efdb28e3,Baxters Court,282-284 Mare St,Hackney,Hackney,E8 1HE,Night Club,51.5494943,-0.0549973,0.97307414736352,1.0,5.8,349.996478189458,529.4213998243773,217
484,4eaeff129911374b16adf1d0,Carpenters Arms,135 Cambridge Heath Rd,London,Bethnal Green,E1 5RN,Karaoke Bar,51.523085,-0.05517,0.9740565708299384,1.0,6.4,455.4326643916295,577.0476340046869,233
485,4aeb661ff964a520c1c121e3,Royal Sovereign,64 Northwold Rd,Greater London,Clapton,E5 8RL,Pub,51.562671,-0.063192,0.9455127458968688,1.0,6.3,1793.3580865684564,959.4078202810298,152
486,52ff8e94498e1e64e5d9bfc0,The Barley Mow,127 Curtain Rd,London,Shoreditch,EC2A 3BX,Pub,51.526039,-0.080479,0.9582400186241417,1.0,6.4,486.6635396115287,550.2436364749633,460
487,4ad478bbf964a520f5e720e3,Bricklayers Arms,63 Charlotte Rd,Shoreditch,The City,EC2A 3PE,Pub,51.526171,-0.081131,0.9617692934466302,3.0,6.3,441.305469135373,503.8592838085961,467
488,4c87ac13821e9eb0eacd8d89,The Rochester Castle,145 Stoke Newington High St,London,Stoke Newington,N16 0NY,Pub,51.561097,-0.07405,0.9534559422651612,1.0,6.2,1458.045145293195,361.2311220107593,115
489,4ae4a84ff964a520d69c21e3,Bow Bells,116 Bow Rd,London,Bow,E3 3AA,Pub,51.527999,-0.019573,0.9807635898032824,1.0,6.2,376.79099114439975,280.17887519193886,201
490,4ad45fd6f964a520ade720e3,The Blind Beggar,337 Whitechapel Rd,London,Whitechapel,E1 1BU,Pub,51.519975,-0.056973,0.9800768245838668,2.0,6.2,184.64134634822355,941.8325702089841,262
491,4e3a8cdfb3ade614e1272dc6,The Cow,4 Chestnut Plaza,Stratford,Stratford and New Town,E20 1GL,Pub,51.5421287,-0.008406,0.9937376324060064,2.0,6.2,336.1665437181673,557.7178075584245,163
492,5e5806046f5546000865d7fc,The Crown & Castle,560 Kingsland Rd,London,Kingsland,E8 4AH,Arts and Entertainment,51.545182,-0.075687,0.987214526830404,1.0,,409.6254085909875,496.946003190002,213
493,4b96b7cdf964a520fedf34e3,Salmon & Ball,502 Bethnal Green Rd,London,Bethnal Green,E2 0EA,Pub,51.527324,-0.055883,0.9438202770341054,1.0,5.1,60.47628067255148,183.50603518547788,234
494,4b3cf273f964a520498a25e3,The Weavers Arms,94-102 A105,Islington,,N 1 4,Pub,51.549427,-0.086937,0.952466534745664,1.0,,576.6265508929423,792.7433545412515,159
495,4b3ce282f964a520f08825e3,The Andover Arms,57 Aldensley Rd,Hammersmith,Hammersmith,W6 0DL,Pub,51.496998,-0.232748,0.9542847165638458,1.0,8.6,369.42145770018186,653.6764614174316,74
496,4bcc89e13740b713102d6465,The Chancellors,25 Crisp Rd,London,Hammersmith,W6 9RL,Pub,51.488556,-0.226965,0.9235781631940404,1.0,8.2,508.0141005917465,698.9930334278058,156
497,4bc9d2870687ef3bbd84dacc,The Black Lion,2 South Black Lion Lane,Hammersmith,Hammersmith,W6 9TJ,Beer Bar,51.490238,-0.241788,0.9509579792806424,1.0,8.2,604.6962658184842,729.6296530330283,38
498,4b13ef42f964a520a19a23e3,The White Horse,1-3 Parsons Green,Greater London,Fulham,SW6 4UL,Beer Bar,51.474384,-0.200304,0.9849237574205564,2.0,8.8,132.9097933794337,568.0482561126399,63
499,4f63ac43e4b08b476ea9693b,The Jameson,43 Blythe Rd,Kensington,West Kensington,W14 0HR,Pub,51.497232,-0.216306,0.9312629495984168,1.0,7.7,487.25568098159647,616.4159076560363,137
500,4b76bcf1f964a520b05b2ee3,The Cross Keys,57 Black Lion Lane,Hammersmith,Hammersmith,W6 9BG,Pub,51.492039,-0.24262,0.9327598649749738,1.0,7.8,405.9334498143385,937.8488994015604,58
501,4b12a45ef964a520c08b23e3,The Fulham Mitre,81 Dawes Rd,Fulham,Fulham,SW6 7DU,Pub,51.479955,-0.202695,0.961208241182633,1.0,8.1,542.7983939748324,196.5923824621036,161
502,4b3bcba7f964a520527b25e3,The Eagle,215 Askew Rd,Shepherds Bush,,W12 9AZ,Pub,51.50069,-0.239396,0.9769852170876498,1.0,7.8,769.0545177249153,925.2894850585895,75
503,4e271607d16486291ba6b81e,The Captain Cook,203-205 Dawes Rd,London,Fulham,SW6 7QY,Pub,51.481087,-0.209699,0.9682155744383656,1.0,7.8,870.0382920365271,697.6747892702435,116
504,4ac518bef964a520f2a220e3,Elephant & Castle,40 Holland St,London,Kensington,W8 4LT,Pub,51.503067,-0.193444,0.9594063554883016,1.0,8.2,311.87525474196445,705.3412117407026,109
505,4ae760f0f964a520caaa21e3,The Kings Head,17 Hogarth Pl,London,Earls Court,SW5 0QT,Pub,51.493307,-0.192678,0.9623326737283204,1.0,8.1,216.02692328570433,387.09563154494265,204
506,4b7ef87cf964a520410d30e3,The Half Moon,93 Lower Richmond Rd,London,Putney,SW15 1EU,Pub,51.467285,-0.21998,0.9789849842858804,1.0,8.4,788.8539246948923,584.3288049436841,79
507,4b7171f8f964a520fc462de3,The Rutland,15 Lower Mall,Hammersmith,Hammersmith,W6 9DJ,Pub,51.489811,-0.231332,0.98145966709347,1.0,7.4,569.5663041510445,728.5087445622871,145
508,4ba65a51f964a520704939e3,The Builder's Arms,1 Kensington Ct Pl,London,Kensington,W8 5BJ,Pub,51.499354,-0.18837,0.9669374927249448,2.0,8.2,296.8640281736483,692.1436870755322,140
509,4ad0a83ff964a520efd820e3,The Defectors Weld,170 Uxbridge Rd,Shepherds Bush,,W12 8AA,Pub,51.505349,-0.224392,0.9845303224304504,2.0,7.7,150.01221875076405,351.2553145220325,285
510,4ac518c7f964a52062a520e3,Mitre,40 Holland Park Ave,London,Kensington and Chelsea,W11 3QY,Pub,51.507812,-0.204213,0.969381911302526,1.0,7.9,112.43352650350687,116.97653285460395,60
511,4ad63de9f964a520fa0521e3,The Windsor Castle,114 Campden Hill Rd,Kensington,Kensington,W8 7AR,Pub,51.506288,-0.198635,0.9686043533930858,3.0,7.9,345.37719926909733,414.1363789531903,85
512,4b5368dbf964a520769b27e3,The Raven,375 Goldhawk Rd,London,Hammersmith,W6 0SA,Pub,51.495303,-0.244582,0.9640530788033989,1.0,7.5,118.60125370719364,913.873350856598,36
513,4ae32162f964a520bc9021e3,Hollywood Arms,45 Hollywood Rd,London,West Brompton,SW10 9HX,Pub,51.486182,-0.184181,0.96468862763357,1.0,8.0,735.1330286396277,527.5636091036142,123
514,4ac518bef964a520f0a220e3,The Devonshire Arms,37 Marloes Rd,London,Kensington,W8 6LA,Pub,51.496827,-0.19265,0.9829053660807822,1.0,7.7,391.8305746936626,363.26599053855915,177
515,4ac518bef964a520f3a220e3,The Mall Tavern,71-73 Palace Gardens Terrace,London,Kensington,W8 4RU,Pub,51.50867,-0.193984,0.966432312885578,2.0,7.9,164.12559405093273,640.2376197406518,98
516,4af1b9b4f964a52085e221e3,The Blackbird,209 Earls Ct Rd,London,Earls Court,SW5 9AN,Pub,51.491865,-0.192271,0.9907787219182864,1.0,7.7,119.48446969021415,294.92560270862765,207
517,4e7b7ccfe4cd1428e8127fc1,The Duchess of Cambridge,320 Goldhawk Rd,Hammersmith,Hammersmith,W6 0XF,Pub,51.498584,-0.243877,0.9743661971830986,1.0,7.5,436.2014450174861,1132.8437241966815,34
518,4b8c07def964a520a5b932e3,Fox & Pheasant,1 Billing Rd,London,Chelsea,SW10 9UJ,Pub,51.481956,-0.187751,0.9492538703294146,1.0,7.9,525.7445472848524,488.3370880284663,158
519,549f35ea498e7b2806b5e61d,The Tommy Tucker,22 Waterford Rd,London,Fulham,SW6 2DR,Pub,51.478848,-0.192838,0.9701501571411942,1.0,7.8,217.1482790827452,498.1162129534674,154
520,4bbf759ab083a593827aa3e9,The Rose,1 Harwood Terrace,Fulham,Fulham,SW6 2AF,Cocktail Bar,51.476892,-0.189539,0.962914678151554,1.0,7.8,531.9363102445009,777.0884444462973,92
521,4bfabb615efe2d7fd8056e34,The Hillgate,24 Hillgate St,London,Kensington,W8 7SR,Pub,51.507903,-0.197655,0.9465044814340589,1.0,7.7,156.97886235777872,395.4860334909042,97
522,4b8ed000f964a520af3833e3,The Champion,1 Wellington Terrace,London,Bayswater,W2 4LW,Pub,51.509991,-0.192358,0.9736701198929112,2.0,7.8,292.08780113645327,766.9555365491706,157
523,4ac518bbf964a52010a220e3,The Atlas,16 Seagrave Rd,Fulham,Fulham,SW6 1RX,Pub,51.486058,-0.196066,0.9695751367710396,1.0,7.4,123.67373310516784,288.4236030077349,130
524,4ac518bef964a520eaa220e3,The Duke of Wellington,179-181 Portobello Rd,London,Notting Hill,W11 2ED,Pub,51.515251,-0.204831,0.978931439878943,2.0,7.7,492.4348903868072,403.30475398810614,185
525,4b61dc68f964a520b5272ae3,The Bricklayer's Arms,32 Waterman St,London,Putney,SW15 1DD,Pub,51.46612,-0.217116,0.9609358631125596,1.0,7.7,641.6697984629188,347.8837693878613,111
526,4ac518c5f964a520ada420e3,The Bull's Head,373 Lonsdale Rd,Barnes,Barnes,SW13 9PY,Pub,51.473719,-0.251053,0.937194738680014,1.0,7.7,2382.405334266951,6.657322491573154,10
527,4ad07c89f964a52035d820e3,The Coach & Horses,27 Barnes High St,Barnes,Barnes,SW13 9LW,Pub,51.473549,-0.250057,0.9679012920498196,1.0,7.7,2393.04606886086,72.45594247979052,13
528,4b3f6e05f964a520bea625e3,The Elgin,96 Ladbroke Grove,London,Notting Hill,W11 1PY,Pub,51.516247,-0.208991,0.976133162612036,2.0,7.6,189.26557875933193,94.98361913425785,182
529,4be591b8bcef2d7fbbf103e5,Duke on the Green,235 New Kings Rd,Fulham,Fulham,SW6 4XG,Pub,51.472633,-0.199534,0.971013851705273,1.0,7.6,304.621019430837,762.8050356828677,52
530,4ac518bef964a520eca220e3,Warwick Arms,160 Warwick Rd,Kensington,West Kensington,W14 8PS,Pub,51.495253,-0.203128,0.983582819229426,1.0,7.1,459.1923127086264,204.75401506179014,142
531,4ac518bdf964a520a4a220e3,The Dukes Head,8 Lower Richmond Rd,London,Putney,SW15 1JN,Beer Bar,51.467371,-0.216999,0.9744034454661856,1.0,7.5,585.3465834098948,442.16556562746746,84
532,4ae49bbef964a520469c21e3,The Dartmouth Castle,26 Glenthorne Rd,Hammersmith,Hammersmith,W6 0LS,Pub,51.49455,-0.227271,0.9631707600977768,1.0,6.7,98.84789677150775,217.2163250344235,260
533,4b55f7ebf964a52076f927e3,The Albion,121 Hammersmith Rd,London,West Kensington,W14 0QL,Pub,51.49442,-0.21279,0.9091933418693982,1.0,6.8,353.7836335806407,474.94566658027327,106
534,4c41f6bbd691c9b6c4908d0a,The Swan,46 Hammersmith Broadway,Hammersmith,Hammersmith,W6 0DZ,Pub,51.49309,-0.224951,0.9774997089977884,2.0,6.5,141.09825547062326,176.1218538307939,251
535,4b43c55df964a52041e925e3,The Duke of Clarence,148 Old Brompton Rd,London,Earls Court,SW5 0BE,Pub,51.490911,-0.182595,0.925226399720638,1.0,7.4,754.9455154307068,920.8587245846003,88
536,4c780417566db60c932e400e,The Castle,100 Holland Park Ave,London,Notting Hill,W11 4UA,Pub,51.506922,-0.207043,0.9480246769875452,1.0,7.1,109.8322472970026,327.46944013154024,49
537,4ac518bdf964a520caa220e3,The Eight Bells,89 Fulham High St,Fulham,Fulham,SW6 3JS,Pub,51.468072,-0.210168,0.9410080316610406,1.0,7.3,115.61079330939039,478.11806558098925,69
538,4ac518bdf964a520c5a220e3,The Old City Arms,107 Hammersmith Bridge Rd,London,Hammersmith,W6 9DA,Pub,51.489439,-0.228902,0.9392480502851822,1.0,6.6,529.3551298441467,661.0807172817093,179
539,4c3f64e7ce54e21e98fd071a,The Goose,248 North End Rd,London,Fulham,SW6 1NL,Pub,51.485,-0.202476,0.9814061226865324,1.0,7.0,571.5704178587539,325.2944340211247,149
540,56d87ec2498eb2bcd16a7e8b,The Kings Arms,425 New Kings Rd,London,Fulham,SW6 4RN,Pub,51.469109,-0.209998,0.9631102316377604,1.0,7.2,94.87125313118173,588.4730356426361,34
541,4ac518bdf964a520daa220e3,The Prince Albert,11 Pembridge Rd,London,Notting Hill,W11 3HQ,Pub,51.509534,-0.19749,0.9723175416133164,1.0,7.2,100.61662766450237,409.03533536933816,100
542,4ad396fff964a52013e520e3,The Sun Inn,7 Church Rd,London,Barnes,SW13 9HE,Pub,51.473637,-0.247075,0.9317401932254684,1.0,7.2,2369.0255557966334,277.8884808397535,13
543,4bcb040bb6c49c74f55b9191,The George & Devonshire,8 Burlington Lane,London,Chiswick,W4 2QE,Beer Garden,51.486394,-0.252081,0.9454592014899312,1.0,7.0,982.4469673673399,757.078833943424,37
544,5c48c89e054e29002cacbd4e,The Crown,210 Chiswick High Rd,London,,W4 1PD,Pub,51.492774,-0.256828,0.9484413921545805,1.0,7.0,325.7483078579111,34.23748022300388,71
545,504e3928e4b0c8862c1ae038,The Lamb,9 Barley Mow Passage,London,Chiswick,W4 4PH,Pub,51.491775,-0.261921,0.9695076242579443,1.0,7.1,566.1953318204082,261.0718736354792,65
546,4bb9c73e53649c74a43948fb,The William Morris,2-4 King St,Hammersmith,Hammersmith,W6 0QA,Pub,51.493068,-0.225422,0.9900523803980912,1.0,6.3,130.38003369912005,191.2923677954333,267
547,4b5af814f964a520c7dc28e3,The Tabard,2 Bath Rd,London,,W4 1LW,Pub,51.495816,-0.254684,0.9727645210103596,1.0,6.9,86.40735394572744,403.4654885244248,53
548,5345c9ef498efe4f11634433,The Sindercombe Social,2 Goldhawk Rd,Shepherds Bush,,W12 8QD,Pub,51.5032,-0.224045,0.9619089745082062,2.0,6.5,287.82818769365025,492.53207230775195,290
549,4ace4bc1f964a520b6cf20e3,Famous Three Kings,171 North End Rd,West Kensington,West Kensington,W14 9NL,Pub,51.490654,-0.206557,0.9805866604586196,2.0,6.4,88.37278201359803,450.5706175736742,173
550,4ac518bdf964a520cfa220e3,The Stanhope Arms,97 Gloucester Rd,Kensington,South Kensington,SW7 4SS,Pub,51.494178,-0.18217,0.9950762425794436,1.0,6.8,638.1477932884271,1007.0942300510767,134
551,57ae03c938fa6c46b7e49fa1,McGettigan's Fulham,1 Fulham Broadway,London,,SW6,Pub,51.479888,-0.196053,0.9551437550925388,,6.7,94.94234378971461,273.99174743395366,164
552,4c20fcedebe52d7fbc7a3178,The Spencer Arms,237 Lower Richmond Rd,London,Putney,SW15 1HJ,Beer Garden,51.468255,-0.228088,0.9663042719124664,1.0,6.8,1335.9092506557058,1128.5495957550372,21
553,4b1aa781f964a52078ee23e3,The Bull,,Shepherds Bush,,W12 7GB,Pub,51.506427,-0.219891,0.9716284483762077,2.0,6.5,201.95622679012553,650.2384189771814,271
554,4ba7da32f964a520f3b839e3,The Salutation,154 King St,Hammersmith,Hammersmith,W6 0QU,Pub,51.49281,-0.233179,0.962416482365266,1.0,6.1,227.24156542508422,656.7227675825706,141
555,4b896c38f964a520d53432e3,The Hansom Cab,84-86 Earls Ct Rd,London,Kensington,W8 6EG,Pub,51.496289,-0.197188,0.901559771854266,1.0,6.5,561.7660594249538,125.28837807095782,168
556,4bbb89833de8c9b67de199ad,The Bolton,326 Earls Ct Rd,London,Earls Court,SW5 9BQ,Pub,51.489676,-0.190486,0.9835548830171108,1.0,6.6,313.29667908714856,382.93356495358444,167
557,4c87ab18821e9eb00bcd8d89,The Plough & Harrow,120-124 King St,London,Hammersmith,W6 0QU,Pub,51.492787,-0.231361,0.9850331742521244,1.0,6.0,332.35748161943803,538.9995652848505,200
558,4bc88af60050b713108cba3b,Prince of Teck,161 Earls Ct Rd,London,Earls Court,SW5 9RQ,Pub,51.492869,-0.193951,0.9584984285880572,2.0,6.5,149.92334180562418,300.0573605836409,202
559,4b237ca4f964a520305624e3,Packhorse & Talbot,145 Chiswick High Rd,London,Chiswick,W4 2DT,Pub,51.492547,-0.254768,0.9562937958328483,1.0,6.4,292.79420417505196,153.3167857967246,65
560,60789c8da8476a03b3b1424d,Duke of Hammersmith,238 Shepherds Bush Rd,Hammersmith,Hammersmith Broadway,W6 7NL,Pub,51.494223,-0.224066,0.967279711325806,1.0,,131.51221400301395,41.0792241085543,242
561,4c0fd3c4f1b6a5938ae77a27,Old Swan,206 Kensington Church St,Kensington,Kensington,W8 4DP,Night Club,51.508947,-0.195007,0.9833104411593528,1.0,6.3,88.8831942968618,570.2691339307033,101
562,4b54f18ff964a52068d427e3,Duke of Cornwall,48 Fulham Palace Rd,Hammersmith,Hammersmith,W6 9PH,Pub,51.490441,-0.223717,0.9627517169130484,1.0,5.2,218.72456268140454,462.250792847236,252
563,4d49c44c7d36f04d802915e5,The Pavilion,"Pavilion Parade, Wood Lane",Shepherds Bush,,W12 0HQ,Pub,51.518829,-0.227764,0.9598021184961004,1.0,6.3,776.0718957836519,1235.8085876854107,67
